{"type":"FeatureCollection","bbox":[138.5950210000001,-38.77712299999996,150.17814900000008,-34.182105999999976],"features":[{"type":"Feature","properties":{"STOP_ID":"20850","STOP_NAME":"General Store/Mallee Hwy (Walpeup)","LATITUDE":-35.135292,"LONGITUDE":142.025111},"geometry":{"type":"Point","coordinates":[142.02511100000004,-35.13529199999999]}},{"type":"Feature","properties":{"STOP_ID":"20851","STOP_NAME":"Cann River Police Staion/Ward St (Cann River)","LATITUDE":-37.565304,"LONGITUDE":149.151963},"geometry":{"type":"Point","coordinates":[149.15196300000002,-37.56530399999997]}},{"type":"Feature","properties":{"STOP_ID":"20852","STOP_NAME":"War Memorial/Forbes St (Bombala (NSW))","LATITUDE":-36.911212,"LONGITUDE":149.240323},"geometry":{"type":"Point","coordinates":[149.240323,-36.91121199999998]}},{"type":"Feature","properties":{"STOP_ID":"20853","STOP_NAME":"Nimmitabel Bakery/Bombala St (Nimmitabel (NSW))","LATITUDE":-36.513301,"LONGITUDE":149.283641},"geometry":{"type":"Point","coordinates":[149.283641,-36.513300999999956]}},{"type":"Feature","properties":{"STOP_ID":"20854","STOP_NAME":"Centennial Park/Bombala St (Cooma (NSW))","LATITUDE":-36.234029,"LONGITUDE":149.126513},"geometry":{"type":"Point","coordinates":[149.12651300000005,-36.234028999999964]}},{"type":"Feature","properties":{"STOP_ID":"20855","STOP_NAME":"Canberra Railway Station/Burke Cres (Kingston (ACT))","LATITUDE":-35.319534,"LONGITUDE":149.14864},"geometry":{"type":"Point","coordinates":[149.14864,-35.319533999999976]}},{"type":"Feature","properties":{"STOP_ID":"20856","STOP_NAME":"Nowa Nowa General Store/Princes Hwy (Nowa Nowa)","LATITUDE":-37.732313,"LONGITUDE":148.091596},"geometry":{"type":"Point","coordinates":[148.09159599999998,-37.73231299999998]}},{"type":"Feature","properties":{"STOP_ID":"20857","STOP_NAME":"Nicholson St/Wolseley St (Orbost)","LATITUDE":-37.705879,"LONGITUDE":148.455305},"geometry":{"type":"Point","coordinates":[148.45530500000007,-37.70587899999998]}},{"type":"Feature","properties":{"STOP_ID":"20858","STOP_NAME":"General Store/Princes Hwy (Cabbage Tree Creek)","LATITUDE":-37.697817,"LONGITUDE":148.720581},"geometry":{"type":"Point","coordinates":[148.72058100000004,-37.697816999999986]}},{"type":"Feature","properties":{"STOP_ID":"20863","STOP_NAME":"opposite Genoa Hotel/Alexanders Rd (Genoa)","LATITUDE":-37.477219,"LONGITUDE":149.588889},"geometry":{"type":"Point","coordinates":[149.588889,-37.47721899999999]}},{"type":"Feature","properties":{"STOP_ID":"20864","STOP_NAME":"Wonboyn Rd/Princes Hwy (Wonboyn (NSW))","LATITUDE":-37.228737,"LONGITUDE":149.83094},"geometry":{"type":"Point","coordinates":[149.83094000000006,-37.22873699999997]}},{"type":"Feature","properties":{"STOP_ID":"20865","STOP_NAME":"Caltex Service Station/Princes Hwy (Eden (NSW))","LATITUDE":-37.063013,"LONGITUDE":149.904263},"geometry":{"type":"Point","coordinates":[149.90426300000001,-37.063012999999955]}},{"type":"Feature","properties":{"STOP_ID":"20866","STOP_NAME":"Bennet Lane (Pambula (NSW))","LATITUDE":-36.930508,"LONGITUDE":149.875214},"geometry":{"type":"Point","coordinates":[149.87521400000003,-36.930507999999975]}},{"type":"Feature","properties":{"STOP_ID":"20867","STOP_NAME":"Park St (Merimbula (NSW))","LATITUDE":-36.888998,"LONGITUDE":149.909028},"geometry":{"type":"Point","coordinates":[149.90902800000003,-36.88899799999996]}},{"type":"Feature","properties":{"STOP_ID":"20868","STOP_NAME":"Service Station/Tarlington St (Cobargo (NSW))","LATITUDE":-36.386912,"LONGITUDE":149.889137},"geometry":{"type":"Point","coordinates":[149.889137,-36.386911999999995]}},{"type":"Feature","properties":{"STOP_ID":"20869","STOP_NAME":"Carp St/Church St (Bega (NSW))","LATITUDE":-36.673835,"LONGITUDE":149.842122},"geometry":{"type":"Point","coordinates":[149.84212200000002,-36.673835]}},{"type":"Feature","properties":{"STOP_ID":"20870","STOP_NAME":"ANZ Bank/Wagonga St (Narooma (NSW))","LATITUDE":-36.219457,"LONGITUDE":150.132576},"geometry":{"type":"Point","coordinates":[150.13257600000009,-36.21945699999998]}},{"type":"Feature","properties":{"STOP_ID":"20871","STOP_NAME":"Narooma Visitor Information Centre/Princes Hwy (Narooma (NSW))","LATITUDE":-36.216653,"LONGITUDE":150.127827},"geometry":{"type":"Point","coordinates":[150.12782700000002,-36.21665299999995]}},{"type":"Feature","properties":{"STOP_ID":"20872","STOP_NAME":"Hector McWilliams Dr/Princes Hwy (Tuross (NSW))","LATITUDE":-36.022272,"LONGITUDE":150.10288},"geometry":{"type":"Point","coordinates":[150.10288000000003,-36.02227199999999]}},{"type":"Feature","properties":{"STOP_ID":"20873","STOP_NAME":"Shops/Princes Hwy (Bodalla (NSW))","LATITUDE":-36.093867,"LONGITUDE":150.05182},"geometry":{"type":"Point","coordinates":[150.05182000000002,-36.09386699999999]}},{"type":"Feature","properties":{"STOP_ID":"20874","STOP_NAME":"Apex Park/Princes Hwy (Moruya (NSW))","LATITUDE":-35.911619,"LONGITUDE":150.080326},"geometry":{"type":"Point","coordinates":[150.080326,-35.91161899999997]}},{"type":"Feature","properties":{"STOP_ID":"20875","STOP_NAME":"Princes Hwy (Mogo (NSW))","LATITUDE":-35.782758,"LONGITUDE":150.14221},"geometry":{"type":"Point","coordinates":[150.1422100000001,-35.782758]}},{"type":"Feature","properties":{"STOP_ID":"20876","STOP_NAME":"Orient St (Batemans Bay (NSW))","LATITUDE":-35.705941,"LONGITUDE":150.178149},"geometry":{"type":"Point","coordinates":[150.17814900000008,-35.705940999999996]}},{"type":"Feature","properties":{"STOP_ID":"20877","STOP_NAME":"Echuca Railway Station (Echuca)","LATITUDE":-36.131111,"LONGITUDE":144.753611},"geometry":{"type":"Point","coordinates":[144.75361099999998,-36.131110999999976]}},{"type":"Feature","properties":{"STOP_ID":"20878","STOP_NAME":"Caltex Roadhouse/Sturt Hwy (Euston (NSW))","LATITUDE":-34.574538,"LONGITUDE":142.740104},"geometry":{"type":"Point","coordinates":[142.7401040000001,-34.57453799999996]}},{"type":"Feature","properties":{"STOP_ID":"20879","STOP_NAME":"Acacia Rd/Creswick-Newstead Rd (Broomfield)","LATITUDE":-37.386656,"LONGITUDE":143.912233},"geometry":{"type":"Point","coordinates":[143.91223300000001,-37.38665599999996]}},{"type":"Feature","properties":{"STOP_ID":"20880","STOP_NAME":"Creswick-Newstead Rd (Allendale)","LATITUDE":-37.371821,"LONGITUDE":143.921422},"geometry":{"type":"Point","coordinates":[143.921422,-37.371820999999954]}},{"type":"Feature","properties":{"STOP_ID":"20881","STOP_NAME":"Cumberland Hotel/Creswick-Newstead Rd (Smeaton)","LATITUDE":-37.331734,"LONGITUDE":143.948878},"geometry":{"type":"Point","coordinates":[143.94887800000004,-37.33173399999998]}},{"type":"Feature","properties":{"STOP_ID":"20882","STOP_NAME":"Opposite Old Garage/Creswick-Newstead Rd (Campbelltown)","LATITUDE":-37.203468,"LONGITUDE":143.946439},"geometry":{"type":"Point","coordinates":[143.94643900000005,-37.20346799999999]}},{"type":"Feature","properties":{"STOP_ID":"20884","STOP_NAME":"Post Office/High St (Maldon)","LATITUDE":-36.995972,"LONGITUDE":144.068003},"geometry":{"type":"Point","coordinates":[144.0680030000001,-36.995971999999995]}},{"type":"Feature","properties":{"STOP_ID":"20885","STOP_NAME":"Pyramid Railway Station (Pyramid Hill)","LATITUDE":-36.05522,"LONGITUDE":144.114554},"geometry":{"type":"Point","coordinates":[144.114554,-36.05521999999996]}},{"type":"Feature","properties":{"STOP_ID":"20889","STOP_NAME":"Caltex Service Station/Waverley Ave (Merrigum)","LATITUDE":-36.371854,"LONGITUDE":145.132026},"geometry":{"type":"Point","coordinates":[145.132026,-36.371853999999985]}},{"type":"Feature","properties":{"STOP_ID":"20890","STOP_NAME":"Goornong Newsagency/Midland Hwy (Goornong)","LATITUDE":-36.614668,"LONGITUDE":144.506845},"geometry":{"type":"Point","coordinates":[144.506845,-36.614667999999995]}},{"type":"Feature","properties":{"STOP_ID":"20891","STOP_NAME":"Township/Boort - Quambatook Rd (Gredgwin)","LATITUDE":-35.969586,"LONGITUDE":143.61882},"geometry":{"type":"Point","coordinates":[143.61882000000003,-35.96958599999999]}},{"type":"Feature","properties":{"STOP_ID":"20894","STOP_NAME":"Highview College/Kars St (Maryborough)","LATITUDE":-37.05335,"LONGITUDE":143.736812},"geometry":{"type":"Point","coordinates":[143.736812,-37.053349999999966]}},{"type":"Feature","properties":{"STOP_ID":"20898","STOP_NAME":"Dunolly Rd (Emu)","LATITUDE":-36.731056,"LONGITUDE":143.441081},"geometry":{"type":"Point","coordinates":[143.44108100000005,-36.73105599999997]}},{"type":"Feature","properties":{"STOP_ID":"20900","STOP_NAME":"Walker Park/Whitehorse Rd (Nunawading)","LATITUDE":-37.817326,"LONGITUDE":145.185038},"geometry":{"type":"Point","coordinates":[145.18503800000008,-37.81732599999998]}},{"type":"Feature","properties":{"STOP_ID":"20901","STOP_NAME":"Family Store/Malaya Rd (Puckapunyal)","LATITUDE":-37.001333,"LONGITUDE":145.039388},"geometry":{"type":"Point","coordinates":[145.03938800000003,-37.00133299999999]}},{"type":"Feature","properties":{"STOP_ID":"20902","STOP_NAME":"Raymond Island Ferry Terminal/Devon Rd (Paynesville)","LATITUDE":-37.919101,"LONGITUDE":147.725064},"geometry":{"type":"Point","coordinates":[147.7250640000001,-37.919100999999955]}},{"type":"Feature","properties":{"STOP_ID":"20903","STOP_NAME":"Latrobe Regional Hospital (Traralgon)","LATITUDE":-38.219217,"LONGITUDE":146.471552},"geometry":{"type":"Point","coordinates":[146.4715520000001,-38.21921699999996]}},{"type":"Feature","properties":{"STOP_ID":"20904","STOP_NAME":"BP Service Station/1929 Midland Hwy (Corop)","LATITUDE":-36.457829,"LONGITUDE":144.797096},"geometry":{"type":"Point","coordinates":[144.797096,-36.457829000000004]}},{"type":"Feature","properties":{"STOP_ID":"20906","STOP_NAME":"La Trobe University/Retreat Rd (Flora Hill)","LATITUDE":-36.782797,"LONGITUDE":144.288756},"geometry":{"type":"Point","coordinates":[144.28875600000003,-36.78279699999996]}},{"type":"Feature","properties":{"STOP_ID":"20907","STOP_NAME":"Twelve Apostles/Great Ocean Rd (Princetown)","LATITUDE":-38.663353,"LONGITUDE":143.104989},"geometry":{"type":"Point","coordinates":[143.10498900000005,-38.66335299999997]}},{"type":"Feature","properties":{"STOP_ID":"20908","STOP_NAME":"Loch Ard Gorge/Great Ocean Rd (Port Campbell)","LATITUDE":-38.643204,"LONGITUDE":143.071374},"geometry":{"type":"Point","coordinates":[143.071374,-38.64320399999997]}},{"type":"Feature","properties":{"STOP_ID":"20909","STOP_NAME":"General Store/Midland Hwy (Lethbridge)","LATITUDE":-37.966904,"LONGITUDE":144.13203},"geometry":{"type":"Point","coordinates":[144.13203,-37.966904]}},{"type":"Feature","properties":{"STOP_ID":"20912","STOP_NAME":"Bacchus Marsh Railway Station (Maddingley)","LATITUDE":-37.687511,"LONGITUDE":144.437014},"geometry":{"type":"Point","coordinates":[144.4370140000001,-37.68751099999997]}},{"type":"Feature","properties":{"STOP_ID":"20913","STOP_NAME":"Opposite Station/Daylesford-Trentham Rd (Musk)","LATITUDE":-37.37199,"LONGITUDE":144.193048},"geometry":{"type":"Point","coordinates":[144.1930480000001,-37.37198999999998]}},{"type":"Feature","properties":{"STOP_ID":"20914","STOP_NAME":"Service Station/Daylesford-Trentham Rd (Bullarto)","LATITUDE":-37.394381,"LONGITUDE":144.221589},"geometry":{"type":"Point","coordinates":[144.221589,-37.39438099999995]}},{"type":"Feature","properties":{"STOP_ID":"20915","STOP_NAME":"Main St/Daylesford-Trentham Rd (Lyonville)","LATITUDE":-37.386636,"LONGITUDE":144.261536},"geometry":{"type":"Point","coordinates":[144.26153599999998,-37.38663599999995]}},{"type":"Feature","properties":{"STOP_ID":"20916","STOP_NAME":"Trentham Milk Bar/Market St (Trentham)","LATITUDE":-37.389574,"LONGITUDE":144.322911},"geometry":{"type":"Point","coordinates":[144.3229110000001,-37.38957399999998]}},{"type":"Feature","properties":{"STOP_ID":"20917","STOP_NAME":"Tylden Produce Store/Tylden-Woodend Rd (Tylden)","LATITUDE":-37.326189,"LONGITUDE":144.407458},"geometry":{"type":"Point","coordinates":[144.40745800000002,-37.326189]}},{"type":"Feature","properties":{"STOP_ID":"21263","STOP_NAME":"Caltex Roadhouse Rose St/Northern Hwy (Echuca)","LATITUDE":-36.14475,"LONGITUDE":144.73024},"geometry":{"type":"Point","coordinates":[144.73023999999998,-36.14474999999999]}},{"type":"Feature","properties":{"STOP_ID":"21264","STOP_NAME":"Sun River Home Park/Northern Hwy (Echuca)","LATITUDE":-36.145547,"LONGITUDE":144.729972},"geometry":{"type":"Point","coordinates":[144.7299720000001,-36.145546999999965]}},{"type":"Feature","properties":{"STOP_ID":"21289","STOP_NAME":"Lilydale Railway Station/Maroondah Hwy (Lilydale)","LATITUDE":-37.756545,"LONGITUDE":145.347086},"geometry":{"type":"Point","coordinates":[145.347086,-37.75654499999996]}},{"type":"Feature","properties":{"STOP_ID":"21462","STOP_NAME":"Moe Railway Station (Moe)","LATITUDE":-38.177,"LONGITUDE":146.260753},"geometry":{"type":"Point","coordinates":[146.26075300000002,-38.176999999999964]}},{"type":"Feature","properties":{"STOP_ID":"21463","STOP_NAME":"Trafalgar Railway Station (Trafalgar)","LATITUDE":-38.207549,"LONGITUDE":146.154838},"geometry":{"type":"Point","coordinates":[146.15483800000004,-38.20754899999997]}},{"type":"Feature","properties":{"STOP_ID":"21464","STOP_NAME":"Longwarry Railway Station (Longwarry)","LATITUDE":-38.111392,"LONGITUDE":145.767184},"geometry":{"type":"Point","coordinates":[145.76718400000004,-38.11139199999997]}},{"type":"Feature","properties":{"STOP_ID":"21466","STOP_NAME":"Garfield Railway Station (Garfield)","LATITUDE":-38.091647,"LONGITUDE":145.67532},"geometry":{"type":"Point","coordinates":[145.67532000000006,-38.091646999999966]}},{"type":"Feature","properties":{"STOP_ID":"21705","STOP_NAME":"Sherwood Park Bus Stop/Aitken Dr (Warrnambool)","LATITUDE":-38.386414,"LONGITUDE":142.540163},"geometry":{"type":"Point","coordinates":[142.540163,-38.386414]}},{"type":"Feature","properties":{"STOP_ID":"21706","STOP_NAME":"Drouin Railway Station (Drouin)","LATITUDE":-38.13583,"LONGITUDE":145.855055},"geometry":{"type":"Point","coordinates":[145.855055,-38.13583]}},{"type":"Feature","properties":{"STOP_ID":"21710","STOP_NAME":"Nowa Nowa/Princes Hwy (Nowa Nowa)","LATITUDE":-37.733903,"LONGITUDE":148.089191},"geometry":{"type":"Point","coordinates":[148.08919100000003,-37.733903]}},{"type":"Feature","properties":{"STOP_ID":"22029","STOP_NAME":"Bemm River Rd/Princes Hwy (Bemm River)","LATITUDE":-37.672413,"LONGITUDE":148.794215},"geometry":{"type":"Point","coordinates":[148.794215,-37.67241299999995]}},{"type":"Feature","properties":{"STOP_ID":"22098","STOP_NAME":"Herbert Rd/Melba Hwy (Yarra Glen)","LATITUDE":-37.6576,"LONGITUDE":145.374437},"geometry":{"type":"Point","coordinates":[145.37443700000006,-37.6576]}},{"type":"Feature","properties":{"STOP_ID":"22099","STOP_NAME":"Herbert Rd/Melba Hwy (Yarra Glen)","LATITUDE":-37.658198,"LONGITUDE":145.374696},"geometry":{"type":"Point","coordinates":[145.37469600000009,-37.65819799999997]}},{"type":"Feature","properties":{"STOP_ID":"2221","STOP_NAME":"General Store/Warrnambool-Caramut Rd (Woolsthorpe)","LATITUDE":-38.184431,"LONGITUDE":142.432038},"geometry":{"type":"Point","coordinates":[142.43203800000003,-38.18443099999996]}},{"type":"Feature","properties":{"STOP_ID":"22252","STOP_NAME":"Pakenham Railway Station (Pakenham)","LATITUDE":-38.080614,"LONGITUDE":145.486368},"geometry":{"type":"Point","coordinates":[145.48636800000008,-38.08061399999997]}},{"type":"Feature","properties":{"STOP_ID":"22364","STOP_NAME":"Nar Nar Goon Railway Station (Nar Nar Goon)","LATITUDE":-38.082138,"LONGITUDE":145.570618},"geometry":{"type":"Point","coordinates":[145.57061800000008,-38.082137999999986]}},{"type":"Feature","properties":{"STOP_ID":"22365","STOP_NAME":"Tynong Railway Station (Tynong)","LATITUDE":-38.0854,"LONGITUDE":145.629584},"geometry":{"type":"Point","coordinates":[145.62958400000002,-38.08539999999999]}},{"type":"Feature","properties":{"STOP_ID":"22490","STOP_NAME":"Post Office/Anzac Rd (Springhurst)","LATITUDE":-36.186272,"LONGITUDE":146.470426},"geometry":{"type":"Point","coordinates":[146.4704260000001,-36.186271999999974]}},{"type":"Feature","properties":{"STOP_ID":"22622","STOP_NAME":"Dadswells Bridge Motel/Western Hwy (Dadswells Bridge)","LATITUDE":-36.917816,"LONGITUDE":142.513813},"geometry":{"type":"Point","coordinates":[142.51381300000003,-36.91781599999996]}},{"type":"Feature","properties":{"STOP_ID":"22623","STOP_NAME":"Dadswells Bridge Motel/Western Hwy (Dadswells Bridge)","LATITUDE":-36.917835,"LONGITUDE":142.513846},"geometry":{"type":"Point","coordinates":[142.51384600000006,-36.91783499999997]}},{"type":"Feature","properties":{"STOP_ID":"22624","STOP_NAME":"Everton General Store/Great Alpine Rd (Everton)","LATITUDE":-36.43281,"LONGITUDE":146.540927},"geometry":{"type":"Point","coordinates":[146.540927,-36.43280999999996]}},{"type":"Feature","properties":{"STOP_ID":"22687","STOP_NAME":"Zeerust Rd/Barmah - Shepparton Rd (Zeerust)","LATITUDE":-36.275859,"LONGITUDE":145.367569},"geometry":{"type":"Point","coordinates":[145.367569,-36.27585899999997]}},{"type":"Feature","properties":{"STOP_ID":"22688","STOP_NAME":"Zeerust Rd/Barmah - Shepparton Rd (Zeerust)","LATITUDE":-36.275697,"LONGITUDE":145.368229},"geometry":{"type":"Point","coordinates":[145.36822900000004,-36.27569699999998]}},{"type":"Feature","properties":{"STOP_ID":"22689","STOP_NAME":"Kaarimba Rd/Barmah - Shepparton Rd (Kaarimba)","LATITUDE":-36.150132,"LONGITUDE":145.295019},"geometry":{"type":"Point","coordinates":[145.29501900000002,-36.150131999999985]}},{"type":"Feature","properties":{"STOP_ID":"22690","STOP_NAME":"Kaarimba Rd/Barmah - Shepparton Rd (Kaarimba)","LATITUDE":-36.150163,"LONGITUDE":145.295875},"geometry":{"type":"Point","coordinates":[145.29587500000002,-36.150162999999964]}},{"type":"Feature","properties":{"STOP_ID":"22931","STOP_NAME":"Ballan Police Station/Old Melbourne Rd (Ballan)","LATITUDE":-37.600211,"LONGITUDE":144.220572},"geometry":{"type":"Point","coordinates":[144.22057200000006,-37.600211]}},{"type":"Feature","properties":{"STOP_ID":"22955","STOP_NAME":"Eversley St/Hamilton - Port Fairy Rd (Macarthur)","LATITUDE":-38.033015,"LONGITUDE":141.999736},"geometry":{"type":"Point","coordinates":[141.99973599999998,-38.03301499999998]}},{"type":"Feature","properties":{"STOP_ID":"22956","STOP_NAME":"Pearses Rd/Hamilton - Port Fairy Rd (Byaduk)","LATITUDE":-37.946858,"LONGITUDE":141.952368},"geometry":{"type":"Point","coordinates":[141.95236799999998,-37.94685799999996]}},{"type":"Feature","properties":{"STOP_ID":"22957","STOP_NAME":"White St/Hamilton - Port Fairy Rd (Byaduk North)","LATITUDE":-37.894271,"LONGITUDE":141.954437},"geometry":{"type":"Point","coordinates":[141.95443699999998,-37.894271]}},{"type":"Feature","properties":{"STOP_ID":"22958","STOP_NAME":"Lake Fyans Tourist Rd/Ararat - Pomonal Rd (Pomonal)","LATITUDE":-37.191683,"LONGITUDE":142.609039},"geometry":{"type":"Point","coordinates":[142.60903900000005,-37.191682999999955]}},{"type":"Feature","properties":{"STOP_ID":"22959","STOP_NAME":"Moyston - Dunkeld Rd/Ararat - Pomonal Rd (Moyston)","LATITUDE":-37.300806,"LONGITUDE":142.765547},"geometry":{"type":"Point","coordinates":[142.76554700000008,-37.300805999999966]}},{"type":"Feature","properties":{"STOP_ID":"22976","STOP_NAME":"Bendigo Bank/Maurice Ave (Mallacoota)","LATITUDE":-37.557577,"LONGITUDE":149.757707},"geometry":{"type":"Point","coordinates":[149.75770699999998,-37.55757699999998]}},{"type":"Feature","properties":{"STOP_ID":"22977","STOP_NAME":"Township/Gipsy Point Rd (Gipsy Point)","LATITUDE":-37.480484,"LONGITUDE":149.679224},"geometry":{"type":"Point","coordinates":[149.6792240000001,-37.48048399999999]}},{"type":"Feature","properties":{"STOP_ID":"22989","STOP_NAME":"Riddells Creek Rd/Melbourne Rd (Monegeetta)","LATITUDE":-37.412796,"LONGITUDE":144.748986},"geometry":{"type":"Point","coordinates":[144.74898600000006,-37.41279599999996]}},{"type":"Feature","properties":{"STOP_ID":"2310","STOP_NAME":"Austin St/Penhurst-Warrnambool Rd (Hawkesdale)","LATITUDE":-38.10664,"LONGITUDE":142.321998},"geometry":{"type":"Point","coordinates":[142.321998,-38.10663999999997]}},{"type":"Feature","properties":{"STOP_ID":"23253","STOP_NAME":"Australia Post/Mollison St (Kyneton)","LATITUDE":-37.247805,"LONGITUDE":144.453435},"geometry":{"type":"Point","coordinates":[144.453435,-37.24780499999997]}},{"type":"Feature","properties":{"STOP_ID":"23434","STOP_NAME":"Bridges Barracks/Morobe Rd (Puckapunyal)","LATITUDE":-36.986632,"LONGITUDE":145.035552},"geometry":{"type":"Point","coordinates":[145.03555200000005,-36.986631999999986]}},{"type":"Feature","properties":{"STOP_ID":"2366","STOP_NAME":"Austin St/Penhurst-Warrnambool Rd (Hawkesdale)","LATITUDE":-38.106757,"LONGITUDE":142.322675},"geometry":{"type":"Point","coordinates":[142.322675,-38.10675699999996]}},{"type":"Feature","properties":{"STOP_ID":"2463","STOP_NAME":"Sydney Rd/Bell St (Coburg)","LATITUDE":-37.74127,"LONGITUDE":144.967372},"geometry":{"type":"Point","coordinates":[144.96737200000007,-37.741269999999986]}},{"type":"Feature","properties":{"STOP_ID":"25","STOP_NAME":"Ballan Railway Station (Ballan)","LATITUDE":-37.603424,"LONGITUDE":144.224982},"geometry":{"type":"Point","coordinates":[144.22498200000007,-37.60342399999996]}},{"type":"Feature","properties":{"STOP_ID":"2574","STOP_NAME":"Tarrington Lutheran School/Hamilton Hwy (Tarrington)","LATITUDE":-37.766074,"LONGITUDE":142.094411},"geometry":{"type":"Point","coordinates":[142.09441100000004,-37.766074]}},{"type":"Feature","properties":{"STOP_ID":"2604","STOP_NAME":"Post Office/Hamilton Hwy (Penshurst)","LATITUDE":-37.874843,"LONGITUDE":142.290624},"geometry":{"type":"Point","coordinates":[142.29062399999998,-37.874843]}},{"type":"Feature","properties":{"STOP_ID":"2609","STOP_NAME":"Post Office/Hamilton Hwy (Penshurst)","LATITUDE":-37.874824,"LONGITUDE":142.289932},"geometry":{"type":"Point","coordinates":[142.28993200000002,-37.87482399999999]}},{"type":"Feature","properties":{"STOP_ID":"2620","STOP_NAME":"Post Office/Hamilton Hwy (Caramut)","LATITUDE":-37.958197,"LONGITUDE":142.518835},"geometry":{"type":"Point","coordinates":[142.51883500000008,-37.958196999999984]}},{"type":"Feature","properties":{"STOP_ID":"2621","STOP_NAME":"Hexham-Chatsworth Rd/Hamilton Hwy (Hexham)","LATITUDE":-37.99587,"LONGITUDE":142.68639},"geometry":{"type":"Point","coordinates":[142.68639000000007,-37.99586999999997]}},{"type":"Feature","properties":{"STOP_ID":"2622","STOP_NAME":"Post Office/Terang-Mortlake Rd (Noorat)","LATITUDE":-38.192305,"LONGITUDE":142.927593},"geometry":{"type":"Point","coordinates":[142.927593,-38.192304999999976]}},{"type":"Feature","properties":{"STOP_ID":"2624","STOP_NAME":"Camperdown Railway Station (Camperdown)","LATITUDE":-38.228727,"LONGITUDE":143.150583},"geometry":{"type":"Point","coordinates":[143.15058299999998,-38.22872699999999]}},{"type":"Feature","properties":{"STOP_ID":"2627","STOP_NAME":"Colac Railway Station (Colac)","LATITUDE":-38.342569,"LONGITUDE":143.586405},"geometry":{"type":"Point","coordinates":[143.586405,-38.34256899999997]}},{"type":"Feature","properties":{"STOP_ID":"266","STOP_NAME":"Bells Rd/Glenelg Hwy (Smythes Creek)","LATITUDE":-37.596612,"LONGITUDE":143.768954},"geometry":{"type":"Point","coordinates":[143.768954,-37.59661199999999]}},{"type":"Feature","properties":{"STOP_ID":"2690","STOP_NAME":"Bundoora RMIT/Plenty Rd (Bundoora)","LATITUDE":-37.68299,"LONGITUDE":145.069216},"geometry":{"type":"Point","coordinates":[145.06921599999998,-37.68298999999996]}},{"type":"Feature","properties":{"STOP_ID":"2767","STOP_NAME":"Austin St/Warncoort-Birregurra Rd (Birregurra)","LATITUDE":-38.33619,"LONGITUDE":143.783436},"geometry":{"type":"Point","coordinates":[143.78343600000005,-38.33618999999999]}},{"type":"Feature","properties":{"STOP_ID":"296","STOP_NAME":"Bells Rd/Glenelg Hwy (Smythes Creek)","LATITUDE":-37.596358,"LONGITUDE":143.768909},"geometry":{"type":"Point","coordinates":[143.768909,-37.59635799999995]}},{"type":"Feature","properties":{"STOP_ID":"30402","STOP_NAME":"Calvert St/Ballarat Rd (Hamlyn Heights)","LATITUDE":-38.120143,"LONGITUDE":144.33363},"geometry":{"type":"Point","coordinates":[144.33363000000008,-38.120142999999985]}},{"type":"Feature","properties":{"STOP_ID":"30479","STOP_NAME":"Calvert St/Ballarat Rd (Hamlyn Heights)","LATITUDE":-38.120572,"LONGITUDE":144.334276},"geometry":{"type":"Point","coordinates":[144.33427600000005,-38.12057199999998]}},{"type":"Feature","properties":{"STOP_ID":"30711","STOP_NAME":"Deakin University/Alfred Deakin Dr (Waurn Ponds)","LATITUDE":-38.198533,"LONGITUDE":144.300149},"geometry":{"type":"Point","coordinates":[144.30014900000003,-38.198533]}},{"type":"Feature","properties":{"STOP_ID":"30750","STOP_NAME":"Roslyn Rd/High St (Belmont)","LATITUDE":-38.175168,"LONGITUDE":144.342708},"geometry":{"type":"Point","coordinates":[144.34270800000002,-38.175167999999985]}},{"type":"Feature","properties":{"STOP_ID":"30774","STOP_NAME":"Pioneer Rd/Torquay Rd (Grovedale)","LATITUDE":-38.202463,"LONGITUDE":144.34087},"geometry":{"type":"Point","coordinates":[144.34087,-38.202462999999966]}},{"type":"Feature","properties":{"STOP_ID":"30819","STOP_NAME":"Roslyn Rd/High St (Belmont)","LATITUDE":-38.174081,"LONGITUDE":144.343649},"geometry":{"type":"Point","coordinates":[144.34364900000003,-38.174081]}},{"type":"Feature","properties":{"STOP_ID":"30848","STOP_NAME":"Pioneer Rd/Torquay Rd (Grovedale)","LATITUDE":-38.204409,"LONGITUDE":144.340834},"geometry":{"type":"Point","coordinates":[144.3408340000001,-38.204409]}},{"type":"Feature","properties":{"STOP_ID":"30935","STOP_NAME":"Torquay Holiday Resort/Surf Coast Hwy (Torquay)","LATITUDE":-38.328771,"LONGITUDE":144.317271},"geometry":{"type":"Point","coordinates":[144.317271,-38.32877099999996]}},{"type":"Feature","properties":{"STOP_ID":"30952","STOP_NAME":"Duffields Rd/Great Ocean Rd (Jan Juc)","LATITUDE":-38.338732,"LONGITUDE":144.306493},"geometry":{"type":"Point","coordinates":[144.30649300000005,-38.33873199999999]}},{"type":"Feature","properties":{"STOP_ID":"30958","STOP_NAME":"Torquay Holiday Resort/Surf Coast Hwy (Torquay)","LATITUDE":-38.328997,"LONGITUDE":144.316908},"geometry":{"type":"Point","coordinates":[144.316908,-38.32899699999996]}},{"type":"Feature","properties":{"STOP_ID":"30960","STOP_NAME":"Grossmans Rd/Surf Coast Hwy (Torquay)","LATITUDE":-38.322798,"LONGITUDE":144.318074},"geometry":{"type":"Point","coordinates":[144.31807400000002,-38.32279799999998]}},{"type":"Feature","properties":{"STOP_ID":"32171","STOP_NAME":"John Field Dr/Narracan Dr (north side) (Newborough)","LATITUDE":-38.186712,"LONGITUDE":146.283572},"geometry":{"type":"Point","coordinates":[146.28357200000005,-38.186712]}},{"type":"Feature","properties":{"STOP_ID":"32251","STOP_NAME":"Bridle Rd/Princes Dr (Morwell)","LATITUDE":-38.234411,"LONGITUDE":146.432799},"geometry":{"type":"Point","coordinates":[146.43279900000005,-38.234410999999966]}},{"type":"Feature","properties":{"STOP_ID":"3252","STOP_NAME":"Geelong Station/Railway Tce (Geelong)","LATITUDE":-38.144993,"LONGITUDE":144.355122},"geometry":{"type":"Point","coordinates":[144.35512200000005,-38.144993]}},{"type":"Feature","properties":{"STOP_ID":"3273","STOP_NAME":"River St/Midland Hwy (Batesford)","LATITUDE":-38.089511,"LONGITUDE":144.28034},"geometry":{"type":"Point","coordinates":[144.28034000000002,-38.08951099999996]}},{"type":"Feature","properties":{"STOP_ID":"3279","STOP_NAME":"River St/Midland Hwy (Batesford)","LATITUDE":-38.089293,"LONGITUDE":144.27988},"geometry":{"type":"Point","coordinates":[144.27988000000005,-38.089293]}},{"type":"Feature","properties":{"STOP_ID":"3288","STOP_NAME":"Ryan Rd/Midland Hwy (Gheringhap)","LATITUDE":-38.076927,"LONGITUDE":144.234208},"geometry":{"type":"Point","coordinates":[144.23420800000008,-38.076926999999955]}},{"type":"Feature","properties":{"STOP_ID":"35029","STOP_NAME":"Ballarat Base Hospital/Sturt St (Ballarat Central)","LATITUDE":-37.560628,"LONGITUDE":143.848243},"geometry":{"type":"Point","coordinates":[143.84824300000002,-37.56062799999995]}},{"type":"Feature","properties":{"STOP_ID":"35120","STOP_NAME":"Ballarat Base Hospital/Sturt St (Ballarat Central)","LATITUDE":-37.561055,"LONGITUDE":143.848044},"geometry":{"type":"Point","coordinates":[143.84804400000007,-37.56105499999995]}},{"type":"Feature","properties":{"STOP_ID":"35252","STOP_NAME":"Lakeside Dr/Midland Hwy (Creswick)","LATITUDE":-37.444275,"LONGITUDE":143.888472},"geometry":{"type":"Point","coordinates":[143.88847199999998,-37.444275000000005]}},{"type":"Feature","properties":{"STOP_ID":"35277","STOP_NAME":"Lakeside Dr/Midland Hwy (Creswick)","LATITUDE":-37.444406,"LONGITUDE":143.888648},"geometry":{"type":"Point","coordinates":[143.888648,-37.44440599999996]}},{"type":"Feature","properties":{"STOP_ID":"35872","STOP_NAME":"Mitchell St/High St (Heathcote)","LATITUDE":-36.915165,"LONGITUDE":144.701039},"geometry":{"type":"Point","coordinates":[144.70103900000004,-36.915165]}},{"type":"Feature","properties":{"STOP_ID":"35883","STOP_NAME":"La Trobe University/Sharon St (Flora Hill)","LATITUDE":-36.777622,"LONGITUDE":144.299346},"geometry":{"type":"Point","coordinates":[144.299346,-36.77762199999995]}},{"type":"Feature","properties":{"STOP_ID":"36255","STOP_NAME":"Lake Burrumbeet Caravan Park/Remembrance Dr (Burrumbeet)","LATITUDE":-37.490034,"LONGITUDE":143.672345},"geometry":{"type":"Point","coordinates":[143.67234500000006,-37.49003399999998]}},{"type":"Feature","properties":{"STOP_ID":"36257","STOP_NAME":"Windermere Way/Madden Rd (Cardigan Village)","LATITUDE":-37.514713,"LONGITUDE":143.705452},"geometry":{"type":"Point","coordinates":[143.70545200000004,-37.51471299999997]}},{"type":"Feature","properties":{"STOP_ID":"36334","STOP_NAME":"Lindsay St/Princes Hwy (Heywood)","LATITUDE":-38.133743,"LONGITUDE":141.629781},"geometry":{"type":"Point","coordinates":[141.62978099999998,-38.13374299999998]}},{"type":"Feature","properties":{"STOP_ID":"36381","STOP_NAME":"Koroit St Interchange/Koroit St (Warrnambool)","LATITUDE":-38.383526,"LONGITUDE":142.483189},"geometry":{"type":"Point","coordinates":[142.48318900000004,-38.38352599999996]}},{"type":"Feature","properties":{"STOP_ID":"36495","STOP_NAME":"Warrnambool Station/Merri St (Warrnambool)","LATITUDE":-38.38511,"LONGITUDE":142.475688},"geometry":{"type":"Point","coordinates":[142.475688,-38.38511]}},{"type":"Feature","properties":{"STOP_ID":"36550","STOP_NAME":"Port Fairy Visitor Centre/Bank St (Port Fairy)","LATITUDE":-38.383519,"LONGITUDE":142.238888},"geometry":{"type":"Point","coordinates":[142.2388880000001,-38.38351899999998]}},{"type":"Feature","properties":{"STOP_ID":"36580","STOP_NAME":"Skenes Creek Valley Rd/Great Ocean Rd (Skenes Creek)","LATITUDE":-38.724598,"LONGITUDE":143.710315},"geometry":{"type":"Point","coordinates":[143.71031500000004,-38.72459799999996]}},{"type":"Feature","properties":{"STOP_ID":"36708","STOP_NAME":"Nathalia Hotel/Blake St (Nathalia)","LATITUDE":-36.05853,"LONGITUDE":145.203952},"geometry":{"type":"Point","coordinates":[145.20395200000007,-36.05852999999996]}},{"type":"Feature","properties":{"STOP_ID":"36709","STOP_NAME":"Nathalia Hotel/Blake St (Nathalia)","LATITUDE":-36.058528,"LONGITUDE":145.203764},"geometry":{"type":"Point","coordinates":[145.20376399999998,-36.05852799999997]}},{"type":"Feature","properties":{"STOP_ID":"36710","STOP_NAME":"General Store/Barmah - Shepparton Rd (Bunbartha)","LATITUDE":-36.220173,"LONGITUDE":145.344297},"geometry":{"type":"Point","coordinates":[145.34429699999998,-36.22017299999999]}},{"type":"Feature","properties":{"STOP_ID":"36852","STOP_NAME":"Goulburn Valley Health/Graham St (Shepparton)","LATITUDE":-36.36253,"LONGITUDE":145.404769},"geometry":{"type":"Point","coordinates":[145.404769,-36.36252999999999]}},{"type":"Feature","properties":{"STOP_ID":"36894","STOP_NAME":"Colbinabbin General Store/Mitchell St (Colbinabbin)","LATITUDE":-36.590378,"LONGITUDE":144.796172},"geometry":{"type":"Point","coordinates":[144.79617200000007,-36.59037799999999]}},{"type":"Feature","properties":{"STOP_ID":"36895","STOP_NAME":"Colbinabbin General Store/Mitchell St (Colbinabbin)","LATITUDE":-36.590223,"LONGITUDE":144.796098},"geometry":{"type":"Point","coordinates":[144.79609800000003,-36.59022299999998]}},{"type":"Feature","properties":{"STOP_ID":"36907","STOP_NAME":"Ararat Town Hall/Barkly St (Ararat)","LATITUDE":-37.283639,"LONGITUDE":142.931989},"geometry":{"type":"Point","coordinates":[142.93198900000004,-37.283638999999994]}},{"type":"Feature","properties":{"STOP_ID":"37347","STOP_NAME":"Wodonga TAFE/87 McKoy St (West Wodonga)","LATITUDE":-36.109542,"LONGITUDE":146.855471},"geometry":{"type":"Point","coordinates":[146.85547100000008,-36.109541999999976]}},{"type":"Feature","properties":{"STOP_ID":"3753","STOP_NAME":"Ryan Rd/Midland Hwy (Gheringhap)","LATITUDE":-38.076938,"LONGITUDE":144.234276},"geometry":{"type":"Point","coordinates":[144.23427600000002,-38.076937999999984]}},{"type":"Feature","properties":{"STOP_ID":"37583","STOP_NAME":"King George Gardens/Rowan St (Wangaratta)","LATITUDE":-36.353342,"LONGITUDE":146.324755},"geometry":{"type":"Point","coordinates":[146.32475499999998,-36.353342]}},{"type":"Feature","properties":{"STOP_ID":"37621","STOP_NAME":"Ovens St/Rowan St (Wangaratta)","LATITUDE":-36.353503,"LONGITUDE":146.324598},"geometry":{"type":"Point","coordinates":[146.32459800000004,-36.35350299999999]}},{"type":"Feature","properties":{"STOP_ID":"37634","STOP_NAME":"Everton General Store/Great Alpine Rd (Everton)","LATITUDE":-36.433071,"LONGITUDE":146.540926},"geometry":{"type":"Point","coordinates":[146.540926,-36.433070999999984]}},{"type":"Feature","properties":{"STOP_ID":"37740","STOP_NAME":"Service Station/Gisborne Rd (Bacchus Marsh)","LATITUDE":-37.675013,"LONGITUDE":144.43537},"geometry":{"type":"Point","coordinates":[144.43537000000003,-37.67501299999998]}},{"type":"Feature","properties":{"STOP_ID":"37766","STOP_NAME":"Warragul Station/Queen St (Warragul)","LATITUDE":-38.163784,"LONGITUDE":145.931326},"geometry":{"type":"Point","coordinates":[145.931326,-38.163783999999964]}},{"type":"Feature","properties":{"STOP_ID":"37915","STOP_NAME":"Bairnsdale Railway Station/MacLeod St (Bairnsdale)","LATITUDE":-37.828215,"LONGITUDE":147.627791},"geometry":{"type":"Point","coordinates":[147.627791,-37.828215]}},{"type":"Feature","properties":{"STOP_ID":"37964","STOP_NAME":"Bus Interchange/Biggs Dr (Wonthaggi)","LATITUDE":-38.604853,"LONGITUDE":145.588396},"geometry":{"type":"Point","coordinates":[145.588396,-38.60485299999999]}},{"type":"Feature","properties":{"STOP_ID":"37977","STOP_NAME":"South Dudley Rd/Bass Hwy (North Wonthaggi)","LATITUDE":-38.589882,"LONGITUDE":145.582937},"geometry":{"type":"Point","coordinates":[145.58293700000002,-38.58988199999999]}},{"type":"Feature","properties":{"STOP_ID":"37978","STOP_NAME":"South Dudley Rd/Bass Hwy (North Wonthaggi)","LATITUDE":-38.589858,"LONGITUDE":145.583213},"geometry":{"type":"Point","coordinates":[145.583213,-38.58985799999999]}},{"type":"Feature","properties":{"STOP_ID":"37986","STOP_NAME":"Panorama Dr/Phillip Island Rd (Cape Woolamai)","LATITUDE":-38.520701,"LONGITUDE":145.337002},"geometry":{"type":"Point","coordinates":[145.33700199999998,-38.520700999999974]}},{"type":"Feature","properties":{"STOP_ID":"37987","STOP_NAME":"General Store/Phillip Island Rd (Surf Beach)","LATITUDE":-38.507885,"LONGITUDE":145.291125},"geometry":{"type":"Point","coordinates":[145.29112500000008,-38.50788499999999]}},{"type":"Feature","properties":{"STOP_ID":"37988","STOP_NAME":"Phillip Island Rd (Sunderland Bay)","LATITUDE":-38.502738,"LONGITUDE":145.281179},"geometry":{"type":"Point","coordinates":[145.28117900000007,-38.502737999999965]}},{"type":"Feature","properties":{"STOP_ID":"37999","STOP_NAME":"Phillip Island Rd (Sunderland Bay)","LATITUDE":-38.502612,"LONGITUDE":145.281216},"geometry":{"type":"Point","coordinates":[145.2812160000001,-38.502612]}},{"type":"Feature","properties":{"STOP_ID":"38000","STOP_NAME":"General Store/Phillip Island Rd (Surf Beach)","LATITUDE":-38.507781,"LONGITUDE":145.291426},"geometry":{"type":"Point","coordinates":[145.291426,-38.507780999999966]}},{"type":"Feature","properties":{"STOP_ID":"38001","STOP_NAME":"Panorama Dr/Phillip Island Rd (Cape Woolamai)","LATITUDE":-38.520526,"LONGITUDE":145.337339},"geometry":{"type":"Point","coordinates":[145.33733900000004,-38.52052599999996]}},{"type":"Feature","properties":{"STOP_ID":"38017","STOP_NAME":"Deep Creek St/Bass Hwy (Grantville)","LATITUDE":-38.398432,"LONGITUDE":145.537408},"geometry":{"type":"Point","coordinates":[145.53740800000003,-38.39843199999996]}},{"type":"Feature","properties":{"STOP_ID":"38018","STOP_NAME":"Kallay Dr/Bass Hwy (Pioneer Bay)","LATITUDE":-38.381503,"LONGITUDE":145.552999},"geometry":{"type":"Point","coordinates":[145.552999,-38.38150299999995]}},{"type":"Feature","properties":{"STOP_ID":"38019","STOP_NAME":"Kallay Dr/Bass Hwy (Pioneer Bay)","LATITUDE":-38.379697,"LONGITUDE":145.555633},"geometry":{"type":"Point","coordinates":[145.55563300000006,-38.379696999999965]}},{"type":"Feature","properties":{"STOP_ID":"39020","STOP_NAME":"Weller Rd/Byrneside-Kyabram Rd (Lancaster)","LATITUDE":-36.314785,"LONGITUDE":145.131941},"geometry":{"type":"Point","coordinates":[145.13194099999998,-36.31478499999997]}},{"type":"Feature","properties":{"STOP_ID":"39021","STOP_NAME":"Weller Rd/Byrneside-Kyabram Rd (Lancaster)","LATITUDE":-36.315211,"LONGITUDE":145.13212},"geometry":{"type":"Point","coordinates":[145.13212,-36.31521099999998]}},{"type":"Feature","properties":{"STOP_ID":"39129","STOP_NAME":"Ely St/Snow Rd (Oxley)","LATITUDE":-36.443262,"LONGITUDE":146.383716},"geometry":{"type":"Point","coordinates":[146.38371600000005,-36.443262000000004]}},{"type":"Feature","properties":{"STOP_ID":"39130","STOP_NAME":"Ely St/Snow Rd (Oxley)","LATITUDE":-36.443747,"LONGITUDE":146.383266},"geometry":{"type":"Point","coordinates":[146.38326600000005,-36.44374699999997]}},{"type":"Feature","properties":{"STOP_ID":"39133","STOP_NAME":"Milawa-Bobinawarrah Rd/Snow Rd (Milawa)","LATITUDE":-36.449477,"LONGITUDE":146.431717},"geometry":{"type":"Point","coordinates":[146.43171700000005,-36.449477]}},{"type":"Feature","properties":{"STOP_ID":"10122","STOP_NAME":"Exeter Rd/Maroondah Hwy (Croydon)","LATITUDE":-37.770475,"LONGITUDE":145.295617},"geometry":{"type":"Point","coordinates":[145.295617,-37.770474999999976]}},{"type":"Feature","properties":{"STOP_ID":"10187","STOP_NAME":"Exeter Rd/Maroondah Hwy (Croydon North)","LATITUDE":-37.770446,"LONGITUDE":145.295459},"geometry":{"type":"Point","coordinates":[145.29545900000005,-37.77044599999999]}},{"type":"Feature","properties":{"STOP_ID":"10545","STOP_NAME":"Yendon Rd/Harbours Rd (Yendon)","LATITUDE":-37.6366,"LONGITUDE":143.972314},"geometry":{"type":"Point","coordinates":[143.97231399999998,-37.63659999999999]}},{"type":"Feature","properties":{"STOP_ID":"1055","STOP_NAME":"Hotel/Hamilton Hwy (Darlington)","LATITUDE":-37.998985,"LONGITUDE":143.044687},"geometry":{"type":"Point","coordinates":[143.04468700000007,-37.998985000000005]}},{"type":"Feature","properties":{"STOP_ID":"12451","STOP_NAME":"Yendon Rd/Harbours Rd (Yendon)","LATITUDE":-37.636493,"LONGITUDE":143.972352},"geometry":{"type":"Point","coordinates":[143.972352,-37.63649299999997]}},{"type":"Feature","properties":{"STOP_ID":"13761","STOP_NAME":"Hudson Park/Sydney St (Kilmore)","LATITUDE":-37.294952,"LONGITUDE":144.951708},"geometry":{"type":"Point","coordinates":[144.95170800000005,-37.29495199999997]}},{"type":"Feature","properties":{"STOP_ID":"13762","STOP_NAME":"Hudson Park/Sydney St (Kilmore)","LATITUDE":-37.295707,"LONGITUDE":144.952093},"geometry":{"type":"Point","coordinates":[144.952093,-37.29570699999999]}},{"type":"Feature","properties":{"STOP_ID":"13763","STOP_NAME":"High St/Romsey Rd (Lancefield)","LATITUDE":-37.278118,"LONGITUDE":144.736607},"geometry":{"type":"Point","coordinates":[144.73660700000005,-37.27811799999995]}},{"type":"Feature","properties":{"STOP_ID":"13764","STOP_NAME":"High St/Romsey Rd (Lancefield)","LATITUDE":-37.27805,"LONGITUDE":144.736812},"geometry":{"type":"Point","coordinates":[144.736812,-37.27804999999995]}},{"type":"Feature","properties":{"STOP_ID":"17801","STOP_NAME":"Cuibitt St/Western Hwy (Great Western)","LATITUDE":-37.151495,"LONGITUDE":142.853451},"geometry":{"type":"Point","coordinates":[142.85345100000006,-37.151494999999954]}},{"type":"Feature","properties":{"STOP_ID":"17802","STOP_NAME":"Cubitt St/Western Hwy (Great Western)","LATITUDE":-37.152021,"LONGITUDE":142.854593},"geometry":{"type":"Point","coordinates":[142.85459300000002,-37.15202099999999]}},{"type":"Feature","properties":{"STOP_ID":"17803","STOP_NAME":"Stawell Railway Station (Stawell)","LATITUDE":-37.059259,"LONGITUDE":142.773548},"geometry":{"type":"Point","coordinates":[142.773548,-37.059259]}},{"type":"Feature","properties":{"STOP_ID":"17804","STOP_NAME":"Tourist Information Centre/Western Hwy (Stawell)","LATITUDE":-37.063636,"LONGITUDE":142.763448},"geometry":{"type":"Point","coordinates":[142.76344800000004,-37.063635999999974]}},{"type":"Feature","properties":{"STOP_ID":"17806","STOP_NAME":"Halls Gap Information Centre/Grampians Rd (Halls Gap)","LATITUDE":-37.140623,"LONGITUDE":142.518978},"geometry":{"type":"Point","coordinates":[142.51897800000006,-37.140623000000005]}},{"type":"Feature","properties":{"STOP_ID":"17807","STOP_NAME":"Wills St/Edwards St (Glenorchy)","LATITUDE":-36.906667,"LONGITUDE":142.663953},"geometry":{"type":"Point","coordinates":[142.663953,-36.90666699999997]}},{"type":"Feature","properties":{"STOP_ID":"17808","STOP_NAME":"Wills St/Edwards St (Glenorchy)","LATITUDE":-36.906787,"LONGITUDE":142.663285},"geometry":{"type":"Point","coordinates":[142.6632850000001,-36.90678699999995]}},{"type":"Feature","properties":{"STOP_ID":"17809","STOP_NAME":"Murtoa Medical Centre/McDonald St (Murtoa)","LATITUDE":-36.619742,"LONGITUDE":142.470586},"geometry":{"type":"Point","coordinates":[142.47058600000003,-36.619741999999974]}},{"type":"Feature","properties":{"STOP_ID":"17810","STOP_NAME":"Walter St/Cromie St (Rupanyup)","LATITUDE":-36.631407,"LONGITUDE":142.631409},"geometry":{"type":"Point","coordinates":[142.63140900000008,-36.63140699999997]}},{"type":"Feature","properties":{"STOP_ID":"17811","STOP_NAME":"Walter St/Cromie St (Rupanyup)","LATITUDE":-36.631278,"LONGITUDE":142.630858},"geometry":{"type":"Point","coordinates":[142.630858,-36.63127799999995]}},{"type":"Feature","properties":{"STOP_ID":"17812","STOP_NAME":"Main St/Church St (Minyip)","LATITUDE":-36.460291,"LONGITUDE":142.587377},"geometry":{"type":"Point","coordinates":[142.58737700000006,-36.460290999999984]}},{"type":"Feature","properties":{"STOP_ID":"17813","STOP_NAME":"Main St/Church St (Minyip)","LATITUDE":-36.460025,"LONGITUDE":142.587492},"geometry":{"type":"Point","coordinates":[142.587492,-36.46002499999997]}},{"type":"Feature","properties":{"STOP_ID":"17814","STOP_NAME":"Sheep Hills Rd/Stawell-Warracknabeal Rd (Sheep Hills)","LATITUDE":-36.387716,"LONGITUDE":142.53121},"geometry":{"type":"Point","coordinates":[142.53121,-36.387715999999955]}},{"type":"Feature","properties":{"STOP_ID":"17815","STOP_NAME":"Sheep Hills Rd/Stawell-Warracknabeal Rd (Sheep Hills)","LATITUDE":-36.387576,"LONGITUDE":142.531329},"geometry":{"type":"Point","coordinates":[142.53132900000003,-36.38757599999997]}},{"type":"Feature","properties":{"STOP_ID":"17816","STOP_NAME":"Scott St/Woolcock St (Warracknabeal)","LATITUDE":-36.250911,"LONGITUDE":142.395333},"geometry":{"type":"Point","coordinates":[142.39533300000005,-36.250910999999974]}},{"type":"Feature","properties":{"STOP_ID":"17817","STOP_NAME":"Swann St/Henty Hwy (Brim)","LATITUDE":-36.076742,"LONGITUDE":142.421041},"geometry":{"type":"Point","coordinates":[142.42104100000006,-36.07674199999997]}},{"type":"Feature","properties":{"STOP_ID":"17818","STOP_NAME":"Swann St/Henty Hwy (Brim)","LATITUDE":-36.076499,"LONGITUDE":142.421277},"geometry":{"type":"Point","coordinates":[142.42127700000003,-36.076498999999956]}},{"type":"Feature","properties":{"STOP_ID":"17819","STOP_NAME":"Galaquil West Rd/Henty Hwy (Beulah)","LATITUDE":-35.99533,"LONGITUDE":142.407695},"geometry":{"type":"Point","coordinates":[142.407695,-35.99532999999997]}},{"type":"Feature","properties":{"STOP_ID":"17820","STOP_NAME":"Galaquil West Rd/Henty Hwy (Beulah)","LATITUDE":-35.995022,"LONGITUDE":142.407868},"geometry":{"type":"Point","coordinates":[142.407868,-35.99502199999995]}},{"type":"Feature","properties":{"STOP_ID":"17821","STOP_NAME":"Hogans Newsagent/Phillips St (Beulah)","LATITUDE":-35.939399,"LONGITUDE":142.420908},"geometry":{"type":"Point","coordinates":[142.42090800000005,-35.93939899999998]}},{"type":"Feature","properties":{"STOP_ID":"17823","STOP_NAME":"Rosebery Station/Henty Hwy (Rosebery)","LATITUDE":-35.83506,"LONGITUDE":142.422543},"geometry":{"type":"Point","coordinates":[142.42254300000002,-35.83506]}},{"type":"Feature","properties":{"STOP_ID":"17824","STOP_NAME":"Rosebery Station/Henty Hwy (Rosebery)","LATITUDE":-35.834987,"LONGITUDE":142.422746},"geometry":{"type":"Point","coordinates":[142.42274600000007,-35.834986999999956]}},{"type":"Feature","properties":{"STOP_ID":"17825","STOP_NAME":"near Fire Station/Henty Hwy (Hopetoun)","LATITUDE":-35.726892,"LONGITUDE":142.36451},"geometry":{"type":"Point","coordinates":[142.36451,-35.726891999999964]}},{"type":"Feature","properties":{"STOP_ID":"17826","STOP_NAME":"near Fire Station/Henty Hwy (Hopetoun)","LATITUDE":-35.72697,"LONGITUDE":142.364671},"geometry":{"type":"Point","coordinates":[142.36467100000004,-35.726969999999994]}},{"type":"Feature","properties":{"STOP_ID":"17827","STOP_NAME":"Coach Terminal/24 Roberts Ave (Horsham)","LATITUDE":-36.714191,"LONGITUDE":142.200519},"geometry":{"type":"Point","coordinates":[142.20051899999999,-36.71419099999997]}},{"type":"Feature","properties":{"STOP_ID":"17828","STOP_NAME":"Fisher St/Western Hwy (Pimpinio)","LATITUDE":-36.584915,"LONGITUDE":142.118269},"geometry":{"type":"Point","coordinates":[142.11826900000005,-36.58491499999997]}},{"type":"Feature","properties":{"STOP_ID":"17829","STOP_NAME":"Fisher St/Western Hwy (Pimpinio)","LATITUDE":-36.584556,"LONGITUDE":142.118302},"geometry":{"type":"Point","coordinates":[142.11830200000009,-36.584555999999964]}},{"type":"Feature","properties":{"STOP_ID":"17831","STOP_NAME":"Car Park Rear Toilet Block/Lloyd St (Dimboola)","LATITUDE":-36.454108,"LONGITUDE":142.026416},"geometry":{"type":"Point","coordinates":[142.02641600000004,-36.45410799999996]}},{"type":"Feature","properties":{"STOP_ID":"17832","STOP_NAME":"Hotel/Western Hwy (Kiata)","LATITUDE":-36.363011,"LONGITUDE":141.794298},"geometry":{"type":"Point","coordinates":[141.79429800000003,-36.36301099999997]}},{"type":"Feature","properties":{"STOP_ID":"17834","STOP_NAME":"Information Centre/Western Hwy (Nhill)","LATITUDE":-36.334345,"LONGITUDE":141.649026},"geometry":{"type":"Point","coordinates":[141.64902600000005,-36.334344999999985]}},{"type":"Feature","properties":{"STOP_ID":"17835","STOP_NAME":"Information Centre/Western Hwy (Nhill)","LATITUDE":-36.333917,"LONGITUDE":141.649122},"geometry":{"type":"Point","coordinates":[141.64912200000003,-36.333916999999985]}},{"type":"Feature","properties":{"STOP_ID":"17836","STOP_NAME":"Kaniva Community Roadhouse/Western Hwy (Kaniva)","LATITUDE":-36.379051,"LONGITUDE":141.240712},"geometry":{"type":"Point","coordinates":[141.24071200000003,-36.379051000000004]}},{"type":"Feature","properties":{"STOP_ID":"17837","STOP_NAME":"Kaniva Community Roadhouse/Western Hwy (Kaniva)","LATITUDE":-36.378832,"LONGITUDE":141.24084},"geometry":{"type":"Point","coordinates":[141.24084000000005,-36.37883199999999]}},{"type":"Feature","properties":{"STOP_ID":"17840","STOP_NAME":"Caltex Station/Calder Hwy (Ouyen)","LATITUDE":-35.069387,"LONGITUDE":142.318754},"geometry":{"type":"Point","coordinates":[142.318754,-35.06938699999995]}},{"type":"Feature","properties":{"STOP_ID":"17841","STOP_NAME":"Caltex Station/Calder Hwy (Ouyen)","LATITUDE":-35.069596,"LONGITUDE":142.319038},"geometry":{"type":"Point","coordinates":[142.31903799999998,-35.06959599999999]}},{"type":"Feature","properties":{"STOP_ID":"17963","STOP_NAME":"opp 137 McKenzie St (Wonthaggi)","LATITUDE":-38.59585,"LONGITUDE":145.592121},"geometry":{"type":"Point","coordinates":[145.59212100000002,-38.595849999999984]}},{"type":"Feature","properties":{"STOP_ID":"17967","STOP_NAME":"Seaward Dr/Cape Paterson Rd (Cape Paterson)","LATITUDE":-38.667845,"LONGITUDE":145.621125},"geometry":{"type":"Point","coordinates":[145.621125,-38.667845]}},{"type":"Feature","properties":{"STOP_ID":"17968","STOP_NAME":"Seaward Dr/Cape Paterson Rd (Cape Paterson)","LATITUDE":-38.667869,"LONGITUDE":145.62009},"geometry":{"type":"Point","coordinates":[145.62009,-38.667868999999996]}},{"type":"Feature","properties":{"STOP_ID":"17969","STOP_NAME":"Ramsay Bvd/The Esplanade (Inverloch)","LATITUDE":-38.634606,"LONGITUDE":145.729677},"geometry":{"type":"Point","coordinates":[145.72967700000004,-38.63460599999996]}},{"type":"Feature","properties":{"STOP_ID":"17970","STOP_NAME":"Gurdies - St Helier Rd/Bass Hwy (The Gurdies)","LATITUDE":-38.371534,"LONGITUDE":145.563053},"geometry":{"type":"Point","coordinates":[145.56305300000008,-38.371534]}},{"type":"Feature","properties":{"STOP_ID":"17971","STOP_NAME":"BP Store/Calder Hwy (Hattah)","LATITUDE":-34.761528,"LONGITUDE":142.27931},"geometry":{"type":"Point","coordinates":[142.27931,-34.761528]}},{"type":"Feature","properties":{"STOP_ID":"17973","STOP_NAME":"Post Office/Indi Ave (Red Cliffs)","LATITUDE":-34.307233,"LONGITUDE":142.187573},"geometry":{"type":"Point","coordinates":[142.18757300000004,-34.307233]}},{"type":"Feature","properties":{"STOP_ID":"17974","STOP_NAME":"Hassell St/Calder Hwy (Irymple)","LATITUDE":-34.236281,"LONGITUDE":142.171897},"geometry":{"type":"Point","coordinates":[142.17189700000006,-34.23628099999996]}},{"type":"Feature","properties":{"STOP_ID":"17975","STOP_NAME":"Hassell St/Calder Hwy (Irymple)","LATITUDE":-34.235671,"LONGITUDE":142.170815},"geometry":{"type":"Point","coordinates":[142.17081500000006,-34.23567099999997]}},{"type":"Feature","properties":{"STOP_ID":"17976","STOP_NAME":"Mildura Railway Station (Mildura)","LATITUDE":-34.182106,"LONGITUDE":142.163234},"geometry":{"type":"Point","coordinates":[142.163234,-34.182105999999976]}},{"type":"Feature","properties":{"STOP_ID":"17977","STOP_NAME":"General Store/Sunraysia Hwy (Tempy)","LATITUDE":-35.345315,"LONGITUDE":142.424803},"geometry":{"type":"Point","coordinates":[142.424803,-35.34531499999997]}},{"type":"Feature","properties":{"STOP_ID":"17978","STOP_NAME":"General Store/Sunraysia Hwy (Tempy)","LATITUDE":-35.344984,"LONGITUDE":142.424623},"geometry":{"type":"Point","coordinates":[142.424623,-35.344983999999954]}},{"type":"Feature","properties":{"STOP_ID":"17979","STOP_NAME":"Service Station/Sunraysia Hwy (Speed)","LATITUDE":-35.401944,"LONGITUDE":142.438837},"geometry":{"type":"Point","coordinates":[142.43883700000004,-35.40194399999996]}},{"type":"Feature","properties":{"STOP_ID":"17980","STOP_NAME":"Service Station/Sunraysia Hwy (Speed)","LATITUDE":-35.401785,"LONGITUDE":142.438659},"geometry":{"type":"Point","coordinates":[142.43865900000003,-35.40178499999996]}},{"type":"Feature","properties":{"STOP_ID":"17981","STOP_NAME":"CFA/Sunraysia Hwy (Turriff)","LATITUDE":-35.457044,"LONGITUDE":142.471117},"geometry":{"type":"Point","coordinates":[142.47111700000005,-35.457043999999996]}},{"type":"Feature","properties":{"STOP_ID":"17982","STOP_NAME":"CFA/Sunraysia Hwy (Turriff)","LATITUDE":-35.456965,"LONGITUDE":142.470923},"geometry":{"type":"Point","coordinates":[142.47092300000008,-35.45696499999997]}},{"type":"Feature","properties":{"STOP_ID":"17983","STOP_NAME":"Boree St/Sunraysia Hwy (Lascelles)","LATITUDE":-35.607881,"LONGITUDE":142.579257},"geometry":{"type":"Point","coordinates":[142.57925699999998,-35.60788099999996]}},{"type":"Feature","properties":{"STOP_ID":"17984","STOP_NAME":"Boree St/Sunraysia Hwy (Lascelles)","LATITUDE":-35.607846,"LONGITUDE":142.579292},"geometry":{"type":"Point","coordinates":[142.579292,-35.607845999999995]}},{"type":"Feature","properties":{"STOP_ID":"17985","STOP_NAME":"Woomelang Station/Sunraysia Hwy (Woomelang)","LATITUDE":-35.68247,"LONGITUDE":142.664425},"geometry":{"type":"Point","coordinates":[142.66442500000005,-35.68246999999997]}},{"type":"Feature","properties":{"STOP_ID":"17986","STOP_NAME":"Woomelang Station/Sunraysia Hwy (Woomelang)","LATITUDE":-35.682556,"LONGITUDE":142.664299},"geometry":{"type":"Point","coordinates":[142.66429900000003,-35.68255599999998]}},{"type":"Feature","properties":{"STOP_ID":"17987","STOP_NAME":"Memorial Park/Cumming Ave (Birchip)","LATITUDE":-35.981265,"LONGITUDE":142.917912},"geometry":{"type":"Point","coordinates":[142.917912,-35.98126499999995]}},{"type":"Feature","properties":{"STOP_ID":"17988","STOP_NAME":"Hotel/Sunraysia Hwy (Watchem)","LATITUDE":-36.14759,"LONGITUDE":142.859091},"geometry":{"type":"Point","coordinates":[142.85909100000003,-36.14758999999998]}},{"type":"Feature","properties":{"STOP_ID":"17989","STOP_NAME":"Post Office/Sunraysia Hwy (Donald)","LATITUDE":-36.370667,"LONGITUDE":142.982667},"geometry":{"type":"Point","coordinates":[142.982667,-36.37066699999997]}},{"type":"Feature","properties":{"STOP_ID":"17990","STOP_NAME":"Post Office/Sunraysia Hwy (Donald)","LATITUDE":-36.370667,"LONGITUDE":142.9824},"geometry":{"type":"Point","coordinates":[142.98239999999998,-36.37066699999997]}},{"type":"Feature","properties":{"STOP_ID":"17991","STOP_NAME":"Dundas St/Market St (St Arnaud)","LATITUDE":-36.615295,"LONGITUDE":143.25862},"geometry":{"type":"Point","coordinates":[143.25862000000006,-36.615295]}},{"type":"Feature","properties":{"STOP_ID":"17992","STOP_NAME":"Dundas St/Market St (St Arnaud)","LATITUDE":-36.615329,"LONGITUDE":143.258563},"geometry":{"type":"Point","coordinates":[143.25856299999998,-36.615328999999974]}},{"type":"Feature","properties":{"STOP_ID":"17993","STOP_NAME":"Bull St/Broadway (Dunolly)","LATITUDE":-36.858352,"LONGITUDE":143.730788},"geometry":{"type":"Point","coordinates":[143.73078800000008,-36.85835199999997]}},{"type":"Feature","properties":{"STOP_ID":"17994","STOP_NAME":"Bull St/Broadway (Dunolly)","LATITUDE":-36.858391,"LONGITUDE":143.730574},"geometry":{"type":"Point","coordinates":[143.73057400000005,-36.85839099999998]}},{"type":"Feature","properties":{"STOP_ID":"17995","STOP_NAME":"Holyrood St/Park Rd (Maryborough)","LATITUDE":-37.038435,"LONGITUDE":143.741295},"geometry":{"type":"Point","coordinates":[143.74129500000004,-37.03843499999999]}},{"type":"Feature","properties":{"STOP_ID":"17996","STOP_NAME":"Holyrood St/Park Rd (Maryborough)","LATITUDE":-37.038237,"LONGITUDE":143.741326},"geometry":{"type":"Point","coordinates":[143.74132600000007,-37.03823699999998]}},{"type":"Feature","properties":{"STOP_ID":"17997","STOP_NAME":"Havelock St/Clarendon St (Maryborough)","LATITUDE":-37.04705,"LONGITUDE":143.736115},"geometry":{"type":"Point","coordinates":[143.73611500000004,-37.047049999999956]}},{"type":"Feature","properties":{"STOP_ID":"17998","STOP_NAME":"Napier St/Derby St (Maryborough)","LATITUDE":-37.054014,"LONGITUDE":143.729544},"geometry":{"type":"Point","coordinates":[143.72954400000003,-37.054013999999995]}},{"type":"Feature","properties":{"STOP_ID":"17999","STOP_NAME":"Napier St/Derby St (Maryborough)","LATITUDE":-37.053921,"LONGITUDE":143.729772},"geometry":{"type":"Point","coordinates":[143.72977200000003,-37.053921]}},{"type":"Feature","properties":{"STOP_ID":"18","STOP_NAME":"Melton Railway Station (Melton South)","LATITUDE":-37.703888,"LONGITUDE":144.572074},"geometry":{"type":"Point","coordinates":[144.57207400000004,-37.70388799999995]}},{"type":"Feature","properties":{"STOP_ID":"18000","STOP_NAME":"Post Office/Sunraysia Hwy (Avoca)","LATITUDE":-37.089019,"LONGITUDE":143.473875},"geometry":{"type":"Point","coordinates":[143.47387500000002,-37.08901899999995]}},{"type":"Feature","properties":{"STOP_ID":"18001","STOP_NAME":"Post Office/Sunraysia Hwy (Avoca)","LATITUDE":-37.088818,"LONGITUDE":143.474402},"geometry":{"type":"Point","coordinates":[143.47440200000005,-37.088818]}},{"type":"Feature","properties":{"STOP_ID":"18004","STOP_NAME":"Butcher Shop/Service St (Clunes)","LATITUDE":-37.294119,"LONGITUDE":143.787127},"geometry":{"type":"Point","coordinates":[143.78712700000005,-37.29411899999997]}},{"type":"Feature","properties":{"STOP_ID":"18005","STOP_NAME":"Butcher Shop/Service St (Clunes)","LATITUDE":-37.294291,"LONGITUDE":143.787142},"geometry":{"type":"Point","coordinates":[143.78714200000002,-37.29429099999999]}},{"type":"Feature","properties":{"STOP_ID":"18671","STOP_NAME":"east of Pechell St/High St (Yea)","LATITUDE":-37.211162,"LONGITUDE":145.423981},"geometry":{"type":"Point","coordinates":[145.42398100000003,-37.211162]}},{"type":"Feature","properties":{"STOP_ID":"18672","STOP_NAME":"General Store/Goulburn Valley Hwy (Molesworth)","LATITUDE":-37.167309,"LONGITUDE":145.539051},"geometry":{"type":"Point","coordinates":[145.5390510000001,-37.16730899999999]}},{"type":"Feature","properties":{"STOP_ID":"18673","STOP_NAME":"General Store/Goulburn Valley Hwy (Molesworth)","LATITUDE":-37.167347,"LONGITUDE":145.539162},"geometry":{"type":"Point","coordinates":[145.53916200000003,-37.16734699999995]}},{"type":"Feature","properties":{"STOP_ID":"18674","STOP_NAME":"Wrights St/Maroondah Hwy (Yarck)","LATITUDE":-37.101185,"LONGITUDE":145.617078},"geometry":{"type":"Point","coordinates":[145.617078,-37.10118499999999]}},{"type":"Feature","properties":{"STOP_ID":"18675","STOP_NAME":"Wrights St/Maroondah Hwy (Yarck)","LATITUDE":-37.101287,"LONGITUDE":145.617312},"geometry":{"type":"Point","coordinates":[145.61731200000008,-37.10128699999996]}},{"type":"Feature","properties":{"STOP_ID":"18676","STOP_NAME":"Euroa - Mansfield Rd/Maroondah Hwy (Merton)","LATITUDE":-36.977321,"LONGITUDE":145.71083},"geometry":{"type":"Point","coordinates":[145.71083,-36.97732099999996]}},{"type":"Feature","properties":{"STOP_ID":"18677","STOP_NAME":"Euroa-Mansfield Rd/Maroondah Hwy (Merton)","LATITUDE":-36.977598,"LONGITUDE":145.710668},"geometry":{"type":"Point","coordinates":[145.71066800000006,-36.977598]}},{"type":"Feature","properties":{"STOP_ID":"18678","STOP_NAME":"Woolshed Rd/Maroondah Hwy (Woodfield)","LATITUDE":-37.022249,"LONGITUDE":145.806827},"geometry":{"type":"Point","coordinates":[145.806827,-37.02224899999999]}},{"type":"Feature","properties":{"STOP_ID":"18679","STOP_NAME":"Woolshed Rd/Maroondah Hwy (Woodfield)","LATITUDE":-37.022554,"LONGITUDE":145.806699},"geometry":{"type":"Point","coordinates":[145.80669899999998,-37.02255399999996]}},{"type":"Feature","properties":{"STOP_ID":"18680","STOP_NAME":"Phillip St/Bon Cres (Bonnie Doon)","LATITUDE":-37.026551,"LONGITUDE":145.853708},"geometry":{"type":"Point","coordinates":[145.85370799999998,-37.026550999999984]}},{"type":"Feature","properties":{"STOP_ID":"18681","STOP_NAME":"Opposite CFA/Maroondah Hwy (Maindample)","LATITUDE":-37.028698,"LONGITUDE":145.94021},"geometry":{"type":"Point","coordinates":[145.94020999999998,-37.02869799999996]}},{"type":"Feature","properties":{"STOP_ID":"18682","STOP_NAME":"Opposite CFA/Maroondah Hwy (Maindample)","LATITUDE":-37.028818,"LONGITUDE":145.9405},"geometry":{"type":"Point","coordinates":[145.94050000000004,-37.028818]}},{"type":"Feature","properties":{"STOP_ID":"18683","STOP_NAME":"MMBL Depot/High St (Mansfield)","LATITUDE":-37.051627,"LONGITUDE":146.086158},"geometry":{"type":"Point","coordinates":[146.08615800000007,-37.051626999999996]}},{"type":"Feature","properties":{"STOP_ID":"18685","STOP_NAME":"Ford St/Camp St (Beechworth)","LATITUDE":-36.359148,"LONGITUDE":146.686794},"geometry":{"type":"Point","coordinates":[146.68679400000008,-36.359148000000005]}},{"type":"Feature","properties":{"STOP_ID":"18686","STOP_NAME":"Post Office/Myrtle St (Myrtleford)","LATITUDE":-36.561292,"LONGITUDE":146.72497},"geometry":{"type":"Point","coordinates":[146.72496999999998,-36.56129199999998]}},{"type":"Feature","properties":{"STOP_ID":"18687","STOP_NAME":"Post Office/Myrtle St (Myrtleford)","LATITUDE":-36.561643,"LONGITUDE":146.72508},"geometry":{"type":"Point","coordinates":[146.72508000000005,-36.561643000000004]}},{"type":"Feature","properties":{"STOP_ID":"18688","STOP_NAME":"Bailey St/Nicholson St (Porepunkah)","LATITUDE":-36.700154,"LONGITUDE":146.911424},"geometry":{"type":"Point","coordinates":[146.911424,-36.700154]}},{"type":"Feature","properties":{"STOP_ID":"18689","STOP_NAME":"Alpine Hotel/Anderson St (Bright)","LATITUDE":-36.728352,"LONGITUDE":146.960433},"geometry":{"type":"Point","coordinates":[146.96043300000008,-36.72835199999997]}},{"type":"Feature","properties":{"STOP_ID":"18690","STOP_NAME":"Falls Creek Coaches/233 Kiewa Valley Hwy (Mount Beauty)","LATITUDE":-36.737986,"LONGITUDE":147.160987},"geometry":{"type":"Point","coordinates":[147.16098699999998,-36.73798599999998]}},{"type":"Feature","properties":{"STOP_ID":"18691","STOP_NAME":"Roadhouse/Melba Hwy (Glenburn)","LATITUDE":-37.41899,"LONGITUDE":145.427048},"geometry":{"type":"Point","coordinates":[145.427048,-37.41898999999995]}},{"type":"Feature","properties":{"STOP_ID":"1937","STOP_NAME":"Webster St/Dunlop St (Mortlake)","LATITUDE":-38.080954,"LONGITUDE":142.804804},"geometry":{"type":"Point","coordinates":[142.804804,-38.08095399999996]}},{"type":"Feature","properties":{"STOP_ID":"1946","STOP_NAME":"Terang Railway Station (Terang)","LATITUDE":-38.236426,"LONGITUDE":142.911415},"geometry":{"type":"Point","coordinates":[142.91141500000003,-38.236425999999994]}},{"type":"Feature","properties":{"STOP_ID":"19980","STOP_NAME":"Melton Railway Station (Melton South)","LATITUDE":-37.703293,"LONGITUDE":144.572524},"geometry":{"type":"Point","coordinates":[144.57252400000004,-37.703292999999974]}},{"type":"Feature","properties":{"STOP_ID":"19998","STOP_NAME":"Sunbury Railway Station (Sunbury)","LATITUDE":-37.579206,"LONGITUDE":144.728165},"geometry":{"type":"Point","coordinates":[144.728165,-37.579206]}},{"type":"Feature","properties":{"STOP_ID":"20018","STOP_NAME":"Dandenong Railway Station (Dandenong)","LATITUDE":-37.989759,"LONGITUDE":145.209605},"geometry":{"type":"Point","coordinates":[145.209605,-37.98975899999999]}},{"type":"Feature","properties":{"STOP_ID":"20290","STOP_NAME":"Bacchus Marsh Railway Station (Maddingley)","LATITUDE":-37.687578,"LONGITUDE":144.436785},"geometry":{"type":"Point","coordinates":[144.436785,-37.687577999999974]}},{"type":"Feature","properties":{"STOP_ID":"20291","STOP_NAME":"Bairnsdale Railway Station (Bairnsdale)","LATITUDE":-37.82872,"LONGITUDE":147.627614},"geometry":{"type":"Point","coordinates":[147.627614,-37.828719999999976]}},{"type":"Feature","properties":{"STOP_ID":"20293","STOP_NAME":"Ballarat Railway Station (Ballarat Central)","LATITUDE":-37.558791,"LONGITUDE":143.859457},"geometry":{"type":"Point","coordinates":[143.85945700000002,-37.558790999999985]}},{"type":"Feature","properties":{"STOP_ID":"20296","STOP_NAME":"Bendigo Railway Station (Bendigo)","LATITUDE":-36.76567,"LONGITUDE":144.283009},"geometry":{"type":"Point","coordinates":[144.283009,-36.76567]}},{"type":"Feature","properties":{"STOP_ID":"20297","STOP_NAME":"Birregurra Railway Station (Birregurra)","LATITUDE":-38.328808,"LONGITUDE":143.783625},"geometry":{"type":"Point","coordinates":[143.78362500000003,-38.32880799999998]}},{"type":"Feature","properties":{"STOP_ID":"20298","STOP_NAME":"Broadford Railway Station (Broadford)","LATITUDE":-37.2072,"LONGITUDE":145.043008},"geometry":{"type":"Point","coordinates":[145.043008,-37.2072]}},{"type":"Feature","properties":{"STOP_ID":"20299","STOP_NAME":"Bunyip Railway Station (Bunyip)","LATITUDE":-38.099108,"LONGITUDE":145.720757},"geometry":{"type":"Point","coordinates":[145.72075700000005,-38.099108]}},{"type":"Feature","properties":{"STOP_ID":"20301","STOP_NAME":"Castlemaine Railway Station (Castlemaine)","LATITUDE":-37.062837,"LONGITUDE":144.213799},"geometry":{"type":"Point","coordinates":[144.213799,-37.062837]}},{"type":"Feature","properties":{"STOP_ID":"20303","STOP_NAME":"Clarkefield Railway Station (Clarkefield)","LATITUDE":-37.483498,"LONGITUDE":144.745373},"geometry":{"type":"Point","coordinates":[144.7453730000001,-37.483498]}},{"type":"Feature","properties":{"STOP_ID":"20305","STOP_NAME":"Corio Railway Station (Corio)","LATITUDE":-38.072831,"LONGITUDE":144.379768},"geometry":{"type":"Point","coordinates":[144.379768,-38.07283099999995]}},{"type":"Feature","properties":{"STOP_ID":"20307","STOP_NAME":"Donnybrook Railway Station (Donnybrook)","LATITUDE":-37.54259,"LONGITUDE":144.96986},"geometry":{"type":"Point","coordinates":[144.96986000000004,-37.54258999999996]}},{"type":"Feature","properties":{"STOP_ID":"20308","STOP_NAME":"Drouin Railway Station (Drouin)","LATITUDE":-38.136452,"LONGITUDE":145.855947},"geometry":{"type":"Point","coordinates":[145.85594700000001,-38.13645199999996]}},{"type":"Feature","properties":{"STOP_ID":"20313","STOP_NAME":"Garfield Railway Station (Garfield)","LATITUDE":-38.091031,"LONGITUDE":145.674225},"geometry":{"type":"Point","coordinates":[145.67422499999998,-38.09103099999999]}},{"type":"Feature","properties":{"STOP_ID":"20314","STOP_NAME":"Geelong Railway Station (Geelong)","LATITUDE":-38.144242,"LONGITUDE":144.354989},"geometry":{"type":"Point","coordinates":[144.35498900000005,-38.14424199999996]}},{"type":"Feature","properties":{"STOP_ID":"20315","STOP_NAME":"Gisborne Railway Station (New Gisborne)","LATITUDE":-37.458825,"LONGITUDE":144.598722},"geometry":{"type":"Point","coordinates":[144.59872200000007,-37.45882499999999]}},{"type":"Feature","properties":{"STOP_ID":"20316","STOP_NAME":"Heathcote Junction Railway Station (Heathcote Junction)","LATITUDE":-37.367734,"LONGITUDE":145.02631},"geometry":{"type":"Point","coordinates":[145.02631000000008,-37.367733999999984]}},{"type":"Feature","properties":{"STOP_ID":"20317","STOP_NAME":"Kangaroo Flat Railway Station (Kangaroo Flat)","LATITUDE":-36.794834,"LONGITUDE":144.24899},"geometry":{"type":"Point","coordinates":[144.24899000000005,-36.79483399999998]}},{"type":"Feature","properties":{"STOP_ID":"20319","STOP_NAME":"Kilmore East Railway Station (Kilmore East)","LATITUDE":-37.29321,"LONGITUDE":144.983566},"geometry":{"type":"Point","coordinates":[144.983566,-37.29320999999999]}},{"type":"Feature","properties":{"STOP_ID":"20320","STOP_NAME":"Kyneton Railway Station (Kyneton)","LATITUDE":-37.258279,"LONGITUDE":144.450602},"geometry":{"type":"Point","coordinates":[144.450602,-37.25827899999996]}},{"type":"Feature","properties":{"STOP_ID":"20321","STOP_NAME":"Lara Railway Station (Lara)","LATITUDE":-38.022428,"LONGITUDE":144.414404},"geometry":{"type":"Point","coordinates":[144.414404,-38.02242799999999]}},{"type":"Feature","properties":{"STOP_ID":"20323","STOP_NAME":"Little River Railway Station (Little River)","LATITUDE":-37.962929,"LONGITUDE":144.498485},"geometry":{"type":"Point","coordinates":[144.49848500000007,-37.962928999999974]}},{"type":"Feature","properties":{"STOP_ID":"20324","STOP_NAME":"Longwarry Railway Station (Longwarry)","LATITUDE":-38.110992,"LONGITUDE":145.76686},"geometry":{"type":"Point","coordinates":[145.76686000000007,-38.11099199999995]}},{"type":"Feature","properties":{"STOP_ID":"20325","STOP_NAME":"Macedon Railway Station (Macedon)","LATITUDE":-37.423573,"LONGITUDE":144.561397},"geometry":{"type":"Point","coordinates":[144.56139700000006,-37.423572999999976]}},{"type":"Feature","properties":{"STOP_ID":"20326","STOP_NAME":"Malmsbury Railway Station (Malmsbury)","LATITUDE":-37.18974,"LONGITUDE":144.375323},"geometry":{"type":"Point","coordinates":[144.37532299999998,-37.18973999999997]}},{"type":"Feature","properties":{"STOP_ID":"20327","STOP_NAME":"Marshall Railway Station (Marshall)","LATITUDE":-38.198549,"LONGITUDE":144.355057},"geometry":{"type":"Point","coordinates":[144.355057,-38.19854899999996]}},{"type":"Feature","properties":{"STOP_ID":"20328","STOP_NAME":"Moe Railway Station (Moe)","LATITUDE":-38.176715,"LONGITUDE":146.262697},"geometry":{"type":"Point","coordinates":[146.262697,-38.176715]}},{"type":"Feature","properties":{"STOP_ID":"20330","STOP_NAME":"Morwell Railway Station (Morwell)","LATITUDE":-38.236719,"LONGITUDE":146.396753},"geometry":{"type":"Point","coordinates":[146.396753,-38.236718999999994]}},{"type":"Feature","properties":{"STOP_ID":"20332","STOP_NAME":"Nagambie Railway Station (Nagambie)","LATITUDE":-36.785464,"LONGITUDE":145.160357},"geometry":{"type":"Point","coordinates":[145.1603570000001,-36.78546399999999]}},{"type":"Feature","properties":{"STOP_ID":"20333","STOP_NAME":"Nar Nar Goon Railway Station (Nar Nar Goon)","LATITUDE":-38.081592,"LONGITUDE":145.571666},"geometry":{"type":"Point","coordinates":[145.57166600000005,-38.081592]}},{"type":"Feature","properties":{"STOP_ID":"20334","STOP_NAME":"North Geelong Railway Station (North Geelong)","LATITUDE":-38.122835,"LONGITUDE":144.352272},"geometry":{"type":"Point","coordinates":[144.35227200000008,-38.12283499999995]}},{"type":"Feature","properties":{"STOP_ID":"20335","STOP_NAME":"North Shore Railway Station (North Shore)","LATITUDE":-38.098377,"LONGITUDE":144.365321},"geometry":{"type":"Point","coordinates":[144.365321,-38.09837699999997]}},{"type":"Feature","properties":{"STOP_ID":"20337","STOP_NAME":"Riddells Creek Railway Station (Riddells Creek)","LATITUDE":-37.465124,"LONGITUDE":144.679831},"geometry":{"type":"Point","coordinates":[144.67983100000004,-37.465124]}},{"type":"Feature","properties":{"STOP_ID":"20339","STOP_NAME":"Rosedale Railway Station (Rosedale)","LATITUDE":-38.156404,"LONGITUDE":146.786966},"geometry":{"type":"Point","coordinates":[146.786966,-38.15640399999995]}},{"type":"Feature","properties":{"STOP_ID":"20341","STOP_NAME":"Sale Railway Station (Sale)","LATITUDE":-38.103103,"LONGITUDE":147.054805},"geometry":{"type":"Point","coordinates":[147.054805,-38.103102999999976]}},{"type":"Feature","properties":{"STOP_ID":"20342","STOP_NAME":"Seymour Railway Station (Seymour)","LATITUDE":-37.024729,"LONGITUDE":145.137729},"geometry":{"type":"Point","coordinates":[145.13772900000004,-37.02472899999998]}},{"type":"Feature","properties":{"STOP_ID":"20344","STOP_NAME":"South Geelong Railway Station (South Geelong)","LATITUDE":-38.158659,"LONGITUDE":144.358987},"geometry":{"type":"Point","coordinates":[144.35898700000007,-38.158659]}},{"type":"Feature","properties":{"STOP_ID":"20346","STOP_NAME":"Stratford Railway Station (Stratford)","LATITUDE":-37.967047,"LONGITUDE":147.081469},"geometry":{"type":"Point","coordinates":[147.08146900000008,-37.96704699999998]}},{"type":"Feature","properties":{"STOP_ID":"20348","STOP_NAME":"Tallarook Railway Station (Tallarook)","LATITUDE":-37.092335,"LONGITUDE":145.102997},"geometry":{"type":"Point","coordinates":[145.10299700000007,-37.09233499999999]}},{"type":"Feature","properties":{"STOP_ID":"20350","STOP_NAME":"Trafalgar Railway Station (Trafalgar)","LATITUDE":-38.207242,"LONGITUDE":146.154773},"geometry":{"type":"Point","coordinates":[146.15477299999998,-38.20724199999995]}},{"type":"Feature","properties":{"STOP_ID":"20351","STOP_NAME":"Traralgon Railway Station (Traralgon)","LATITUDE":-38.198885,"LONGITUDE":146.537882},"geometry":{"type":"Point","coordinates":[146.53788200000008,-38.19888499999996]}},{"type":"Feature","properties":{"STOP_ID":"20352","STOP_NAME":"Tynong Railway Station (Tynong)","LATITUDE":-38.084996,"LONGITUDE":145.628234},"geometry":{"type":"Point","coordinates":[145.62823400000002,-38.08499599999999]}},{"type":"Feature","properties":{"STOP_ID":"20354","STOP_NAME":"Wallan Railway Station (Wallan)","LATITUDE":-37.416536,"LONGITUDE":145.005358},"geometry":{"type":"Point","coordinates":[145.005358,-37.41653599999995]}},{"type":"Feature","properties":{"STOP_ID":"20355","STOP_NAME":"Wandong Railway Station (Wandong)","LATITUDE":-37.354677,"LONGITUDE":145.026415},"geometry":{"type":"Point","coordinates":[145.02641500000004,-37.35467699999998]}},{"type":"Feature","properties":{"STOP_ID":"20357","STOP_NAME":"Warragul Railway Station (Warragul)","LATITUDE":-38.165224,"LONGITUDE":145.933085},"geometry":{"type":"Point","coordinates":[145.933085,-38.16522399999997]}},{"type":"Feature","properties":{"STOP_ID":"20361","STOP_NAME":"Woodend Railway Station (Woodend)","LATITUDE":-37.358799,"LONGITUDE":144.52589},"geometry":{"type":"Point","coordinates":[144.52589,-37.358798999999976]}},{"type":"Feature","properties":{"STOP_ID":"20362","STOP_NAME":"Yarragon Railway Station (Yarragon)","LATITUDE":-38.203158,"LONGITUDE":146.063063},"geometry":{"type":"Point","coordinates":[146.06306300000006,-38.20315799999997]}},{"type":"Feature","properties":{"STOP_ID":"20794","STOP_NAME":"Rubicon St/Albert St (Sebastopol)","LATITUDE":-37.582262,"LONGITUDE":143.840866},"geometry":{"type":"Point","coordinates":[143.840866,-37.58226199999996]}},{"type":"Feature","properties":{"STOP_ID":"20807","STOP_NAME":"Sweetie's Bakery/North Tce (Bordertown (SA))","LATITUDE":-36.308471,"LONGITUDE":140.772996},"geometry":{"type":"Point","coordinates":[140.77299600000003,-36.308471]}},{"type":"Feature","properties":{"STOP_ID":"20808","STOP_NAME":"Makin St/Heritage St (Keith (SA))","LATITUDE":-36.098623,"LONGITUDE":140.355162},"geometry":{"type":"Point","coordinates":[140.35516200000006,-36.098622999999975]}},{"type":"Feature","properties":{"STOP_ID":"20809","STOP_NAME":"Tintinara Travel Stop (Mobil Roadhouse)/Dukes Hwy (Tintinara (SA))","LATITUDE":-35.883983,"LONGITUDE":140.055779},"geometry":{"type":"Point","coordinates":[140.05577900000003,-35.883983]}},{"type":"Feature","properties":{"STOP_ID":"20810","STOP_NAME":"BP Roadhouse/North Tce (Coonalpyn (SA))","LATITUDE":-35.693592,"LONGITUDE":139.855067},"geometry":{"type":"Point","coordinates":[139.85506700000008,-35.69359199999997]}},{"type":"Feature","properties":{"STOP_ID":"20811","STOP_NAME":"Shell Roadhouse/North Tce (Tailem Bend (SA))","LATITUDE":-35.253539,"LONGITUDE":139.452591},"geometry":{"type":"Point","coordinates":[139.45259099999998,-35.25353899999999]}},{"type":"Feature","properties":{"STOP_ID":"20812","STOP_NAME":"Information Centre/South Tce (Murray Bridge (SA))","LATITUDE":-35.120353,"LONGITUDE":139.275355},"geometry":{"type":"Point","coordinates":[139.275355,-35.120352999999966]}},{"type":"Feature","properties":{"STOP_ID":"20813","STOP_NAME":"Opposite Cornerstone College/Adelaide Rd (Mount Barker (SA))","LATITUDE":-35.060274,"LONGITUDE":138.852205},"geometry":{"type":"Point","coordinates":[138.85220500000003,-35.06027399999999]}},{"type":"Feature","properties":{"STOP_ID":"20814","STOP_NAME":"South Eastern Fwy (Crafers (SA))","LATITUDE":-34.998632,"LONGITUDE":138.70156},"geometry":{"type":"Point","coordinates":[138.7015600000001,-34.998631999999986]}},{"type":"Feature","properties":{"STOP_ID":"20815","STOP_NAME":"85 Franklin St (Adelaide City (SA))","LATITUDE":-34.927371,"LONGITUDE":138.595021},"geometry":{"type":"Point","coordinates":[138.5950210000001,-34.927370999999994]}},{"type":"Feature","properties":{"STOP_ID":"20816","STOP_NAME":"Sunbury Railway Station (Sunbury)","LATITUDE":-37.579124,"LONGITUDE":144.728552},"geometry":{"type":"Point","coordinates":[144.72855200000004,-37.57912399999998]}},{"type":"Feature","properties":{"STOP_ID":"20817","STOP_NAME":"Woodend Railway Station (Woodend)","LATITUDE":-37.359441,"LONGITUDE":144.525564},"geometry":{"type":"Point","coordinates":[144.52556400000003,-37.359441000000004]}},{"type":"Feature","properties":{"STOP_ID":"20818","STOP_NAME":"Kyneton Railway Station (Kyneton)","LATITUDE":-37.25813,"LONGITUDE":144.45081},"geometry":{"type":"Point","coordinates":[144.45081000000005,-37.258129999999994]}},{"type":"Feature","properties":{"STOP_ID":"20821","STOP_NAME":"BP Service Station/Hume Hwy (Woomargama (NSW))","LATITUDE":-35.832988,"LONGITUDE":147.247915},"geometry":{"type":"Point","coordinates":[147.24791500000003,-35.832988]}},{"type":"Feature","properties":{"STOP_ID":"20822","STOP_NAME":"Westpac Bank/Albury St (Holbrook (NSW))","LATITUDE":-35.723431,"LONGITUDE":147.314004},"geometry":{"type":"Point","coordinates":[147.31400400000007,-35.723431000000005]}},{"type":"Feature","properties":{"STOP_ID":"20823","STOP_NAME":"Mobil Service Station/Sydney St (Tarcutta (NSW))","LATITUDE":-35.277484,"LONGITUDE":147.736095},"geometry":{"type":"Point","coordinates":[147.73609499999998,-35.27748399999996]}},{"type":"Feature","properties":{"STOP_ID":"20824","STOP_NAME":"Tourist Information Centre/249 Sheridan St (Gundagai (NSW))","LATITUDE":-35.062897,"LONGITUDE":148.101688},"geometry":{"type":"Point","coordinates":[148.10168800000008,-35.062896999999964]}},{"type":"Feature","properties":{"STOP_ID":"20826","STOP_NAME":"Murrumbateman Hotel/Barton Hwy (Murrumbateman (NSW))","LATITUDE":-34.968539,"LONGITUDE":149.030426},"geometry":{"type":"Point","coordinates":[149.03042600000003,-34.968538999999964]}},{"type":"Feature","properties":{"STOP_ID":"20827","STOP_NAME":"Jolimont Centre/Northbourne Ave (Canberra (ACT))","LATITUDE":-35.277411,"LONGITUDE":149.128563},"geometry":{"type":"Point","coordinates":[149.12856299999999,-35.27741099999997]}},{"type":"Feature","properties":{"STOP_ID":"20828","STOP_NAME":"Grain Silo/Wimmera Hwy (Marnoo)","LATITUDE":-36.668624,"LONGITUDE":142.873143},"geometry":{"type":"Point","coordinates":[142.87314300000003,-36.668623999999966]}},{"type":"Feature","properties":{"STOP_ID":"20830","STOP_NAME":"Gisborne Station/Early St (New Gisborne)","LATITUDE":-37.4592,"LONGITUDE":144.598947},"geometry":{"type":"Point","coordinates":[144.59894700000007,-37.45919999999995]}},{"type":"Feature","properties":{"STOP_ID":"20831","STOP_NAME":"Riddells Creek Railway Station (Riddells Creek)","LATITUDE":-37.464619,"LONGITUDE":144.679812},"geometry":{"type":"Point","coordinates":[144.67981200000008,-37.46461899999997]}},{"type":"Feature","properties":{"STOP_ID":"20832","STOP_NAME":"Clarkefield Railway Station (Clarkefield)","LATITUDE":-37.483424,"LONGITUDE":144.745759},"geometry":{"type":"Point","coordinates":[144.74575900000002,-37.48342399999996]}},{"type":"Feature","properties":{"STOP_ID":"20833","STOP_NAME":"Mobil Roadhouse/Sunraysia Hwy (St Arnaud)","LATITUDE":-36.621937,"LONGITUDE":143.265284},"geometry":{"type":"Point","coordinates":[143.26528400000007,-36.621937]}},{"type":"Feature","properties":{"STOP_ID":"20836","STOP_NAME":"Southern Cross Coach Terminal/Spencer St (Melbourne City)","LATITUDE":-37.815084,"LONGITUDE":144.951149},"geometry":{"type":"Point","coordinates":[144.951149,-37.815083999999956]}},{"type":"Feature","properties":{"STOP_ID":"20838","STOP_NAME":"Sherlock Store/Mallee Hwy (Sherlock (SA))","LATITUDE":-35.318767,"LONGITUDE":139.801137},"geometry":{"type":"Point","coordinates":[139.80113700000004,-35.31876699999998]}},{"type":"Feature","properties":{"STOP_ID":"20840","STOP_NAME":"Peake Hotel/Mallee Hwy (Peake (SA))","LATITUDE":-35.365109,"LONGITUDE":139.949402},"geometry":{"type":"Point","coordinates":[139.94940200000008,-35.36510899999996]}},{"type":"Feature","properties":{"STOP_ID":"20841","STOP_NAME":"Jabuk Store/Mallee Hwy (Jabuk (SA))","LATITUDE":-35.381051,"LONGITUDE":140.064351},"geometry":{"type":"Point","coordinates":[140.064351,-35.38105099999996]}},{"type":"Feature","properties":{"STOP_ID":"20842","STOP_NAME":"Roadside Stop/Mallee Hwy (Geranium (SA))","LATITUDE":-35.377882,"LONGITUDE":140.160574},"geometry":{"type":"Point","coordinates":[140.160574,-35.377882]}},{"type":"Feature","properties":{"STOP_ID":"20845","STOP_NAME":"Post Office/Railway Tce (Lameroo (SA))","LATITUDE":-35.329156,"LONGITUDE":140.517631},"geometry":{"type":"Point","coordinates":[140.51763100000005,-35.329155999999955]}},{"type":"Feature","properties":{"STOP_ID":"20846","STOP_NAME":"Parilla Store/Mallee Hwy (Parilla (SA))","LATITUDE":-35.296751,"LONGITUDE":140.666544},"geometry":{"type":"Point","coordinates":[140.66654400000004,-35.29675099999997]}},{"type":"Feature","properties":{"STOP_ID":"20847","STOP_NAME":"BP Roadhouse/Homburg Tce (Pinnaroo (SA))","LATITUDE":-35.260568,"LONGITUDE":140.91371},"geometry":{"type":"Point","coordinates":[140.91371000000004,-35.26056799999998]}},{"type":"Feature","properties":{"STOP_ID":"20848","STOP_NAME":"Murrayville Hotel/Mallee Hwy (Murrayville)","LATITUDE":-35.262432,"LONGITUDE":141.183588},"geometry":{"type":"Point","coordinates":[141.183588,-35.26243199999999]}},{"type":"Feature","properties":{"STOP_ID":"20849","STOP_NAME":"General Store/Mallee Hwy (Underbool)","LATITUDE":-35.169795,"LONGITUDE":141.808976},"geometry":{"type":"Point","coordinates":[141.80897600000003,-35.169794999999965]}},{"type":"Feature","properties":{"STOP_ID":"13765","STOP_NAME":"Woodend - Wallan Rd/Melbourne - Lancefield Rd (Romsey)","LATITUDE":-37.35009,"LONGITUDE":144.742812},"geometry":{"type":"Point","coordinates":[144.74281200000007,-37.350089999999966]}},{"type":"Feature","properties":{"STOP_ID":"13766","STOP_NAME":"Woodend - Wallan Rd/Melbourne - Lancefield Rd (Romsey)","LATITUDE":-37.350121,"LONGITUDE":144.743036},"geometry":{"type":"Point","coordinates":[144.74303600000007,-37.350121]}},{"type":"Feature","properties":{"STOP_ID":"13767","STOP_NAME":"Power St/High St (Pyalong)","LATITUDE":-37.121834,"LONGITUDE":144.858128},"geometry":{"type":"Point","coordinates":[144.85812800000008,-37.12183399999998]}},{"type":"Feature","properties":{"STOP_ID":"13768","STOP_NAME":"Power St/High St (Pyalong)","LATITUDE":-37.121738,"LONGITUDE":144.858277},"geometry":{"type":"Point","coordinates":[144.85827700000004,-37.12173799999999]}},{"type":"Feature","properties":{"STOP_ID":"13769","STOP_NAME":"General Store/Northern Hwy (Tooborac)","LATITUDE":-37.043957,"LONGITUDE":144.798605},"geometry":{"type":"Point","coordinates":[144.79860500000007,-37.04395699999998]}},{"type":"Feature","properties":{"STOP_ID":"13770","STOP_NAME":"General Store/Northern Hwy (Tooborac)","LATITUDE":-37.044441,"LONGITUDE":144.798939},"geometry":{"type":"Point","coordinates":[144.79893900000002,-37.04444099999995]}},{"type":"Feature","properties":{"STOP_ID":"14929","STOP_NAME":"Forest St/Warrenheip St (Buninyong)","LATITUDE":-37.648876,"LONGITUDE":143.884311},"geometry":{"type":"Point","coordinates":[143.88431100000003,-37.64887599999997]}},{"type":"Feature","properties":{"STOP_ID":"15096","STOP_NAME":"Jennings St/Northern Hwy (Heathcote)","LATITUDE":-36.927406,"LONGITUDE":144.711852},"geometry":{"type":"Point","coordinates":[144.71185200000002,-36.92740599999996]}},{"type":"Feature","properties":{"STOP_ID":"15097","STOP_NAME":"Jennings St/Northern Hwy (Heathcote)","LATITUDE":-36.927469,"LONGITUDE":144.712299},"geometry":{"type":"Point","coordinates":[144.71229900000003,-36.927468999999974]}},{"type":"Feature","properties":{"STOP_ID":"15098","STOP_NAME":"Axedale Rd/Northern Hwy (Toolleen)","LATITUDE":-36.720886,"LONGITUDE":144.682763},"geometry":{"type":"Point","coordinates":[144.68276300000002,-36.72088599999995]}},{"type":"Feature","properties":{"STOP_ID":"15099","STOP_NAME":"Axedale Rd/Northern Hwy (Toolleen)","LATITUDE":-36.720816,"LONGITUDE":144.682877},"geometry":{"type":"Point","coordinates":[144.68287700000008,-36.72081599999996]}},{"type":"Feature","properties":{"STOP_ID":"15100","STOP_NAME":"Bendigo-Murchison Rd/Northern Hwy (Myola)","LATITUDE":-36.599098,"LONGITUDE":144.652968},"geometry":{"type":"Point","coordinates":[144.652968,-36.59909799999997]}},{"type":"Feature","properties":{"STOP_ID":"15101","STOP_NAME":"Bendigo-Murchison Rd/Northern Hwy (Myola)","LATITUDE":-36.599109,"LONGITUDE":144.653058},"geometry":{"type":"Point","coordinates":[144.653058,-36.599109]}},{"type":"Feature","properties":{"STOP_ID":"15102","STOP_NAME":"Elmore Railway Station (Elmore)","LATITUDE":-36.495311,"LONGITUDE":144.607894},"geometry":{"type":"Point","coordinates":[144.607894,-36.49531099999996]}},{"type":"Feature","properties":{"STOP_ID":"15103","STOP_NAME":"Elmore Railway Station (Elmore)","LATITUDE":-36.495352,"LONGITUDE":144.608116},"geometry":{"type":"Point","coordinates":[144.608116,-36.49535199999997]}},{"type":"Feature","properties":{"STOP_ID":"15105","STOP_NAME":"Rochester Railway Station (Rochester)","LATITUDE":-36.362271,"LONGITUDE":144.698717},"geometry":{"type":"Point","coordinates":[144.698717,-36.362270999999964]}},{"type":"Feature","properties":{"STOP_ID":"15109","STOP_NAME":"Murray River Council/Cobb Hwy (Moama (NSW))","LATITUDE":-36.114285,"LONGITUDE":144.756112},"geometry":{"type":"Point","coordinates":[144.75611200000003,-36.114284999999995]}},{"type":"Feature","properties":{"STOP_ID":"15110","STOP_NAME":"Caltex Service Station/Cobb Hwy (Mathoura (NSW))","LATITUDE":-35.812887,"LONGITUDE":144.902718},"geometry":{"type":"Point","coordinates":[144.90271800000005,-35.81288699999999]}},{"type":"Feature","properties":{"STOP_ID":"15111","STOP_NAME":"344 Whitelock St (Deniliquin (NSW))","LATITUDE":-35.528731,"LONGITUDE":144.961509},"geometry":{"type":"Point","coordinates":[144.96150899999998,-35.52873099999999]}},{"type":"Feature","properties":{"STOP_ID":"15112","STOP_NAME":"Border Service Station/Murray St (Barham (NSW))","LATITUDE":-35.629901,"LONGITUDE":144.125923},"geometry":{"type":"Point","coordinates":[144.12592300000006,-35.62990099999996]}},{"type":"Feature","properties":{"STOP_ID":"15113","STOP_NAME":"Thompson St/Main St (Koondrook)","LATITUDE":-35.643573,"LONGITUDE":144.131196},"geometry":{"type":"Point","coordinates":[144.13119600000005,-35.643573]}},{"type":"Feature","properties":{"STOP_ID":"15114","STOP_NAME":"King Albert Ave/Leitchville Rd (Leitchville)","LATITUDE":-35.903637,"LONGITUDE":144.301115},"geometry":{"type":"Point","coordinates":[144.30111499999998,-35.903637]}},{"type":"Feature","properties":{"STOP_ID":"15115","STOP_NAME":"Newsagent/Murray Valley Hwy (Gunbower)","LATITUDE":-35.956289,"LONGITUDE":144.368797},"geometry":{"type":"Point","coordinates":[144.3687970000001,-35.95628899999997]}},{"type":"Feature","properties":{"STOP_ID":"15116","STOP_NAME":"Newsagent/Murray Valley Hwy (Gunbower)","LATITUDE":-35.955983,"LONGITUDE":144.368796},"geometry":{"type":"Point","coordinates":[144.3687960000001,-35.955983]}},{"type":"Feature","properties":{"STOP_ID":"15117","STOP_NAME":"General Store/Murray Valley Hwy (Torrumbarry)","LATITUDE":-36.028933,"LONGITUDE":144.516566},"geometry":{"type":"Point","coordinates":[144.516566,-36.028932999999995]}},{"type":"Feature","properties":{"STOP_ID":"15118","STOP_NAME":"Singer Rd/Lockington Rd (Lockington)","LATITUDE":-36.271739,"LONGITUDE":144.535786},"geometry":{"type":"Point","coordinates":[144.53578600000003,-36.27173899999997]}},{"type":"Feature","properties":{"STOP_ID":"15119","STOP_NAME":"Singer Rd/Lockington Rd (Lockington)","LATITUDE":-36.271676,"LONGITUDE":144.535821},"geometry":{"type":"Point","coordinates":[144.53582100000006,-36.27167599999996]}},{"type":"Feature","properties":{"STOP_ID":"15120","STOP_NAME":"Mangan St/Henderson Rd (Tongala)","LATITUDE":-36.249947,"LONGITUDE":144.948284},"geometry":{"type":"Point","coordinates":[144.94828400000006,-36.24994699999996]}},{"type":"Feature","properties":{"STOP_ID":"15121","STOP_NAME":"Mangan St/Henderson Rd (Tongala)","LATITUDE":-36.249809,"LONGITUDE":144.948076},"geometry":{"type":"Point","coordinates":[144.94807600000001,-36.24980899999997]}},{"type":"Feature","properties":{"STOP_ID":"15122","STOP_NAME":"Transit Centre/Union St (Kyabram)","LATITUDE":-36.314376,"LONGITUDE":145.047682},"geometry":{"type":"Point","coordinates":[145.047682,-36.31437599999998]}},{"type":"Feature","properties":{"STOP_ID":"15123","STOP_NAME":"Mill St/McLennan St (Mooroopna)","LATITUDE":-36.394078,"LONGITUDE":145.361332},"geometry":{"type":"Point","coordinates":[145.36133200000006,-36.39407799999998]}},{"type":"Feature","properties":{"STOP_ID":"15124","STOP_NAME":"Mill St/Midland Hwy (Mooroopna)","LATITUDE":-36.394571,"LONGITUDE":145.361143},"geometry":{"type":"Point","coordinates":[145.36114300000008,-36.394570999999985]}},{"type":"Feature","properties":{"STOP_ID":"15126","STOP_NAME":"Shepparton Railway Station (Shepparton)","LATITUDE":-36.384048,"LONGITUDE":145.40618},"geometry":{"type":"Point","coordinates":[145.40618000000006,-36.38404799999995]}},{"type":"Feature","properties":{"STOP_ID":"15127","STOP_NAME":"Fraser St/Wyndham St (Shepparton)","LATITUDE":-36.379839,"LONGITUDE":145.399466},"geometry":{"type":"Point","coordinates":[145.39946600000007,-36.379839000000004]}},{"type":"Feature","properties":{"STOP_ID":"15128","STOP_NAME":"Fraser St/Wyndham St (Shepparton)","LATITUDE":-36.379644,"LONGITUDE":145.399737},"geometry":{"type":"Point","coordinates":[145.39973700000007,-36.379643999999985]}},{"type":"Feature","properties":{"STOP_ID":"15130","STOP_NAME":"Barmah Hotel/Maloney St (Barmah)","LATITUDE":-36.017252,"LONGITUDE":144.957807},"geometry":{"type":"Point","coordinates":[144.957807,-36.017251999999985]}},{"type":"Feature","properties":{"STOP_ID":"15131","STOP_NAME":"Milk Bar/Echuca - Nathalia Rd (Picola)","LATITUDE":-35.998931,"LONGITUDE":145.110967},"geometry":{"type":"Point","coordinates":[145.11096700000007,-35.99893099999997]}},{"type":"Feature","properties":{"STOP_ID":"15137","STOP_NAME":"Milk Bar/Station St (Girgarre)","LATITUDE":-36.397075,"LONGITUDE":144.980858},"geometry":{"type":"Point","coordinates":[144.980858,-36.39707499999997]}},{"type":"Feature","properties":{"STOP_ID":"15139","STOP_NAME":"Birdwood Ave/Brundenell St (Stanhope)","LATITUDE":-36.445715,"LONGITUDE":144.982588},"geometry":{"type":"Point","coordinates":[144.98258800000008,-36.44571499999995]}},{"type":"Feature","properties":{"STOP_ID":"15140","STOP_NAME":"Birdwood Ave/Brundenell St (Stanhope)","LATITUDE":-36.445955,"LONGITUDE":144.982437},"geometry":{"type":"Point","coordinates":[144.982437,-36.44595499999997]}},{"type":"Feature","properties":{"STOP_ID":"15143","STOP_NAME":"High St/Moora Rd (Rushworth)","LATITUDE":-36.585667,"LONGITUDE":145.014727},"geometry":{"type":"Point","coordinates":[145.014727,-36.585667]}},{"type":"Feature","properties":{"STOP_ID":"15144","STOP_NAME":"School St/Moora Rd (Rushworth)","LATITUDE":-36.585462,"LONGITUDE":145.014889},"geometry":{"type":"Point","coordinates":[145.01488900000004,-36.58546199999995]}},{"type":"Feature","properties":{"STOP_ID":"15145","STOP_NAME":"Murchison/Stevenson St (Murchison)","LATITUDE":-36.61687,"LONGITUDE":145.218177},"geometry":{"type":"Point","coordinates":[145.21817700000008,-36.61686999999995]}},{"type":"Feature","properties":{"STOP_ID":"15666","STOP_NAME":"Forest St/Warrenheip St (Buninyong)","LATITUDE":-37.648971,"LONGITUDE":143.884182},"geometry":{"type":"Point","coordinates":[143.884182,-37.64897099999996]}},{"type":"Feature","properties":{"STOP_ID":"16091","STOP_NAME":"Princes Fwy (Darnum)","LATITUDE":-38.18627,"LONGITUDE":146.002019},"geometry":{"type":"Point","coordinates":[146.00201900000002,-38.18626999999998]}},{"type":"Feature","properties":{"STOP_ID":"16096","STOP_NAME":"Yarragon Railway Station (Yarragon)","LATITUDE":-38.203345,"LONGITUDE":146.062866},"geometry":{"type":"Point","coordinates":[146.06286599999999,-38.203344999999956]}},{"type":"Feature","properties":{"STOP_ID":"1613","STOP_NAME":"Webster St/Dunlop St (Mortlake)","LATITUDE":-38.080692,"LONGITUDE":142.804774},"geometry":{"type":"Point","coordinates":[142.80477400000007,-38.080692]}},{"type":"Feature","properties":{"STOP_ID":"16231","STOP_NAME":"Castlemaine Railway Station (Castlemaine)","LATITUDE":-37.062846,"LONGITUDE":144.214159},"geometry":{"type":"Point","coordinates":[144.214159,-37.06284599999998]}},{"type":"Feature","properties":{"STOP_ID":"16234","STOP_NAME":"Kangaroo Flat Station/High St (Kangaroo Flat)","LATITUDE":-36.795037,"LONGITUDE":144.244523},"geometry":{"type":"Point","coordinates":[144.24452300000007,-36.79503699999998]}},{"type":"Feature","properties":{"STOP_ID":"16235","STOP_NAME":"Kangaroo Flat Station/High St (Kangaroo Flat)","LATITUDE":-36.79502,"LONGITUDE":144.244176},"geometry":{"type":"Point","coordinates":[144.24417600000004,-36.795019999999965]}},{"type":"Feature","properties":{"STOP_ID":"16238","STOP_NAME":"Bendigo Station/Railway Pl (Bendigo)","LATITUDE":-36.765928,"LONGITUDE":144.282104},"geometry":{"type":"Point","coordinates":[144.282104,-36.765927999999974]}},{"type":"Feature","properties":{"STOP_ID":"16240","STOP_NAME":"Victoria St/High St (Eaglehawk)","LATITUDE":-36.719318,"LONGITUDE":144.254587},"geometry":{"type":"Point","coordinates":[144.25458700000001,-36.71931799999999]}},{"type":"Feature","properties":{"STOP_ID":"16243","STOP_NAME":"Maiden Gully Rd/Calder Hwy (Maiden Gully)","LATITUDE":-36.742572,"LONGITUDE":144.210995},"geometry":{"type":"Point","coordinates":[144.21099500000003,-36.742571999999996]}},{"type":"Feature","properties":{"STOP_ID":"16244","STOP_NAME":"Maiden Gully Rd/Calder Hwy (Maiden Gully)","LATITUDE":-36.742784,"LONGITUDE":144.209654},"geometry":{"type":"Point","coordinates":[144.209654,-36.74278399999997]}},{"type":"Feature","properties":{"STOP_ID":"16245","STOP_NAME":"Marong General Store/Calder Hwy (Marong)","LATITUDE":-36.735504,"LONGITUDE":144.132058},"geometry":{"type":"Point","coordinates":[144.13205800000003,-36.73550399999999]}},{"type":"Feature","properties":{"STOP_ID":"16246","STOP_NAME":"Marong General Store/Calder Hwy (Marong)","LATITUDE":-36.735432,"LONGITUDE":144.132442},"geometry":{"type":"Point","coordinates":[144.13244200000008,-36.735432]}},{"type":"Feature","properties":{"STOP_ID":"16247","STOP_NAME":"Park St/Calder Hwy (Bridgewater)","LATITUDE":-36.601675,"LONGITUDE":143.941345},"geometry":{"type":"Point","coordinates":[143.94134500000007,-36.601675]}},{"type":"Feature","properties":{"STOP_ID":"16248","STOP_NAME":"Park St/Calder Hwy (Bridgewater)","LATITUDE":-36.601447,"LONGITUDE":143.941264},"geometry":{"type":"Point","coordinates":[143.94126400000005,-36.60144699999995]}},{"type":"Feature","properties":{"STOP_ID":"16249","STOP_NAME":"Houston St/Calder Hwy (Inglewood)","LATITUDE":-36.574856,"LONGITUDE":143.867806},"geometry":{"type":"Point","coordinates":[143.8678060000001,-36.574855999999954]}},{"type":"Feature","properties":{"STOP_ID":"16250","STOP_NAME":"Houston St/Calder Hwy (Inglewood)","LATITUDE":-36.575308,"LONGITUDE":143.868201},"geometry":{"type":"Point","coordinates":[143.868201,-36.57530799999995]}},{"type":"Feature","properties":{"STOP_ID":"16251","STOP_NAME":"Jacka Park/Chapel St (Wedderburn)","LATITUDE":-36.418504,"LONGITUDE":143.612965},"geometry":{"type":"Point","coordinates":[143.61296500000003,-36.418503999999984]}},{"type":"Feature","properties":{"STOP_ID":"16252","STOP_NAME":"Jacka Park/Chapel St (Wedderburn)","LATITUDE":-36.418108,"LONGITUDE":143.61364},"geometry":{"type":"Point","coordinates":[143.61364000000003,-36.41810799999996]}},{"type":"Feature","properties":{"STOP_ID":"16253","STOP_NAME":"Travellers Rest/John Curtin Dr (Charlton)","LATITUDE":-36.268352,"LONGITUDE":143.350877},"geometry":{"type":"Point","coordinates":[143.35087700000008,-36.26835199999999]}},{"type":"Feature","properties":{"STOP_ID":"16254","STOP_NAME":"Teddywaddy Rd/Calder Hwy (Teddywaddy)","LATITUDE":-36.195518,"LONGITUDE":143.34008},"geometry":{"type":"Point","coordinates":[143.34008000000006,-36.19551799999999]}},{"type":"Feature","properties":{"STOP_ID":"16255","STOP_NAME":"Teddywaddy Rd/Calder Hwy (Teddywaddy)","LATITUDE":-36.195441,"LONGITUDE":143.340195},"geometry":{"type":"Point","coordinates":[143.340195,-36.19544099999996]}},{"type":"Feature","properties":{"STOP_ID":"16257","STOP_NAME":"Glenloth Rd/Calder Hwy (Glenloth)","LATITUDE":-36.139013,"LONGITUDE":143.287059},"geometry":{"type":"Point","coordinates":[143.287059,-36.13901299999998]}},{"type":"Feature","properties":{"STOP_ID":"16258","STOP_NAME":"Post Office/Calder Hwy (Wycheproof)","LATITUDE":-36.076936,"LONGITUDE":143.225765},"geometry":{"type":"Point","coordinates":[143.22576500000002,-36.07693599999999]}},{"type":"Feature","properties":{"STOP_ID":"16259","STOP_NAME":"Nullawil - Birchip Rd/Calder Hwy (Nullawil)","LATITUDE":-35.853122,"LONGITUDE":143.177119},"geometry":{"type":"Point","coordinates":[143.17711900000006,-35.853121999999985]}},{"type":"Feature","properties":{"STOP_ID":"16260","STOP_NAME":"Nullawil - Birchip Rd/Calder Hwy (Nullawil)","LATITUDE":-35.852971,"LONGITUDE":143.177192},"geometry":{"type":"Point","coordinates":[143.177192,-35.85297099999997]}},{"type":"Feature","properties":{"STOP_ID":"16261","STOP_NAME":"Garage/Main St (Culgoa)","LATITUDE":-35.717984,"LONGITUDE":143.108102},"geometry":{"type":"Point","coordinates":[143.10810200000003,-35.717984]}},{"type":"Feature","properties":{"STOP_ID":"16262","STOP_NAME":"Caltex Service Station/Calder Hwy (Berriwillock)","LATITUDE":-35.638243,"LONGITUDE":142.998973},"geometry":{"type":"Point","coordinates":[142.99897299999998,-35.63824299999999]}},{"type":"Feature","properties":{"STOP_ID":"16263","STOP_NAME":"Caltex Service Station/Calder Hwy (Berriwillock)","LATITUDE":-35.638184,"LONGITUDE":142.999086},"geometry":{"type":"Point","coordinates":[142.99908600000003,-35.63818399999997]}},{"type":"Feature","properties":{"STOP_ID":"16264","STOP_NAME":"Newsagency/Best St (Sea Lake)","LATITUDE":-35.50427,"LONGITUDE":142.849806},"geometry":{"type":"Point","coordinates":[142.84980600000006,-35.50426999999996]}},{"type":"Feature","properties":{"STOP_ID":"16266","STOP_NAME":"McGregor's Garage/Donald - Swan Hill Rd (Lalbert)","LATITUDE":-35.670773,"LONGITUDE":143.375329},"geometry":{"type":"Point","coordinates":[143.37532900000008,-35.670773]}},{"type":"Feature","properties":{"STOP_ID":"16267","STOP_NAME":"Gear Ave/Warrenheip St (Mount Helen)","LATITUDE":-37.628118,"LONGITUDE":143.879956},"geometry":{"type":"Point","coordinates":[143.879956,-37.62811799999997]}},{"type":"Feature","properties":{"STOP_ID":"16268","STOP_NAME":"Gear Ave/Warrenheip St (Mount Helen)","LATITUDE":-37.628006,"LONGITUDE":143.88013},"geometry":{"type":"Point","coordinates":[143.88013,-37.62800599999997]}},{"type":"Feature","properties":{"STOP_ID":"16269","STOP_NAME":"Navigators Rd (Navigators)","LATITUDE":-37.608373,"LONGITUDE":143.935428},"geometry":{"type":"Point","coordinates":[143.935428,-37.60837299999997]}},{"type":"Feature","properties":{"STOP_ID":"16270","STOP_NAME":"Navigators Rd (Navigators)","LATITUDE":-37.608293,"LONGITUDE":143.935476},"geometry":{"type":"Point","coordinates":[143.935476,-37.608293]}},{"type":"Feature","properties":{"STOP_ID":"16271","STOP_NAME":"Warrenheip Rd/Navigators Rd (Warrenheip)","LATITUDE":-37.584855,"LONGITUDE":143.917429},"geometry":{"type":"Point","coordinates":[143.91742900000008,-37.584855000000005]}},{"type":"Feature","properties":{"STOP_ID":"16272","STOP_NAME":"Warrenheip Rd/Navigators Rd (Warrenheip)","LATITUDE":-37.584674,"LONGITUDE":143.917379},"geometry":{"type":"Point","coordinates":[143.91737899999998,-37.58467399999995]}},{"type":"Feature","properties":{"STOP_ID":"16273","STOP_NAME":"Sovereign Hill/Bradshaw St (Golden Point (3350))","LATITUDE":-37.574611,"LONGITUDE":143.866162},"geometry":{"type":"Point","coordinates":[143.86616200000003,-37.574611000000004]}},{"type":"Feature","properties":{"STOP_ID":"16274","STOP_NAME":"Sovereign Hill/Bradshaw St (Golden Point (3350))","LATITUDE":-37.57463,"LONGITUDE":143.866184},"geometry":{"type":"Point","coordinates":[143.8661840000001,-37.57462999999996]}},{"type":"Feature","properties":{"STOP_ID":"16287","STOP_NAME":"Morwell Railway Station (Morwell)","LATITUDE":-38.23685,"LONGITUDE":146.397735},"geometry":{"type":"Point","coordinates":[146.397735,-38.236850000000004]}},{"type":"Feature","properties":{"STOP_ID":"16289","STOP_NAME":"Newborough TAFE/Monash Rd (Yallourn)","LATITUDE":-38.17607,"LONGITUDE":146.307824},"geometry":{"type":"Point","coordinates":[146.30782399999998,-38.17606999999998]}},{"type":"Feature","properties":{"STOP_ID":"16291","STOP_NAME":"Centre Valley Rd/Princes Dr (Morwell)","LATITUDE":-38.235089,"LONGITUDE":146.429434},"geometry":{"type":"Point","coordinates":[146.42943400000001,-38.23508899999996]}},