{"type":"FeatureCollection","bbox":[141.65389000000005,-38.386393999999996,147.627614,-35.341114000000005],"features":[{"type":"Feature","properties":{"STOP_ID":"17204","STOP_NAME":"Wallan Railway Station (Wallan)","LATITUDE":-37.416861,"LONGITUDE":145.005372},"geometry":{"type":"Point","coordinates":[145.00537200000008,-37.41686099999998]}},{"type":"Feature","properties":{"STOP_ID":"19980","STOP_NAME":"Melton Railway Station (Melton South)","LATITUDE":-37.703293,"LONGITUDE":144.572524},"geometry":{"type":"Point","coordinates":[144.57252400000004,-37.703292999999974]}},{"type":"Feature","properties":{"STOP_ID":"19981","STOP_NAME":"Rockbank Railway Station (Rockbank)","LATITUDE":-37.729261,"LONGITUDE":144.650631},"geometry":{"type":"Point","coordinates":[144.6506310000001,-37.72926099999995]}},{"type":"Feature","properties":{"STOP_ID":"19982","STOP_NAME":"Deer Park Railway Station (Deer Park)","LATITUDE":-37.777764,"LONGITUDE":144.772304},"geometry":{"type":"Point","coordinates":[144.77230400000008,-37.77776399999999]}},{"type":"Feature","properties":{"STOP_ID":"19998","STOP_NAME":"Sunbury Railway Station (Sunbury)","LATITUDE":-37.579206,"LONGITUDE":144.728165},"geometry":{"type":"Point","coordinates":[144.728165,-37.579206]}},{"type":"Feature","properties":{"STOP_ID":"20020","STOP_NAME":"Ardeer Railway Station (Ardeer)","LATITUDE":-37.783065,"LONGITUDE":144.802188},"geometry":{"type":"Point","coordinates":[144.802188,-37.783064999999965]}},{"type":"Feature","properties":{"STOP_ID":"20029","STOP_NAME":"Craigieburn Railway Station (Craigieburn)","LATITUDE":-37.601925,"LONGITUDE":144.943306},"geometry":{"type":"Point","coordinates":[144.943306,-37.601924999999994]}},{"type":"Feature","properties":{"STOP_ID":"20043","STOP_NAME":"Southern Cross Railway Station (Melbourne City)","LATITUDE":-37.818334,"LONGITUDE":144.952525},"geometry":{"type":"Point","coordinates":[144.95252500000004,-37.81833399999999]}},{"type":"Feature","properties":{"STOP_ID":"20287","STOP_NAME":"Albury Railway Station (Albury (NSW))","LATITUDE":-36.084262,"LONGITUDE":146.924515},"geometry":{"type":"Point","coordinates":[146.92451500000004,-36.08426199999997]}},{"type":"Feature","properties":{"STOP_ID":"20288","STOP_NAME":"Ararat Railway Station (Ararat)","LATITUDE":-37.282205,"LONGITUDE":142.936914},"geometry":{"type":"Point","coordinates":[142.936914,-37.282204999999976]}},{"type":"Feature","properties":{"STOP_ID":"20289","STOP_NAME":"Avenel Railway Station (Avenel)","LATITUDE":-36.893648,"LONGITUDE":145.229515},"geometry":{"type":"Point","coordinates":[145.229515,-36.893647999999985]}},{"type":"Feature","properties":{"STOP_ID":"20290","STOP_NAME":"Bacchus Marsh Railway Station (Maddingley)","LATITUDE":-37.687578,"LONGITUDE":144.436785},"geometry":{"type":"Point","coordinates":[144.436785,-37.687577999999974]}},{"type":"Feature","properties":{"STOP_ID":"20291","STOP_NAME":"Bairnsdale Railway Station (Bairnsdale)","LATITUDE":-37.82872,"LONGITUDE":147.627614},"geometry":{"type":"Point","coordinates":[147.627614,-37.828719999999976]}},{"type":"Feature","properties":{"STOP_ID":"20292","STOP_NAME":"Ballan Railway Station (Ballan)","LATITUDE":-37.6043,"LONGITUDE":144.225448},"geometry":{"type":"Point","coordinates":[144.22544800000003,-37.60429999999997]}},{"type":"Feature","properties":{"STOP_ID":"20293","STOP_NAME":"Ballarat Railway Station (Ballarat Central)","LATITUDE":-37.558791,"LONGITUDE":143.859457},"geometry":{"type":"Point","coordinates":[143.85945700000002,-37.558790999999985]}},{"type":"Feature","properties":{"STOP_ID":"20294","STOP_NAME":"Beaufort Railway Station (Beaufort)","LATITUDE":-37.427875,"LONGITUDE":143.382234},"geometry":{"type":"Point","coordinates":[143.38223400000004,-37.42787499999997]}},{"type":"Feature","properties":{"STOP_ID":"20295","STOP_NAME":"Benalla Railway Station (Benalla)","LATITUDE":-36.54455,"LONGITUDE":145.983915},"geometry":{"type":"Point","coordinates":[145.98391500000002,-36.54454999999996]}},{"type":"Feature","properties":{"STOP_ID":"20296","STOP_NAME":"Bendigo Railway Station (Bendigo)","LATITUDE":-36.76567,"LONGITUDE":144.283009},"geometry":{"type":"Point","coordinates":[144.283009,-36.76567]}},{"type":"Feature","properties":{"STOP_ID":"20297","STOP_NAME":"Birregurra Railway Station (Birregurra)","LATITUDE":-38.328808,"LONGITUDE":143.783625},"geometry":{"type":"Point","coordinates":[143.78362500000003,-38.32880799999998]}},{"type":"Feature","properties":{"STOP_ID":"20298","STOP_NAME":"Broadford Railway Station (Broadford)","LATITUDE":-37.2072,"LONGITUDE":145.043008},"geometry":{"type":"Point","coordinates":[145.043008,-37.2072]}},{"type":"Feature","properties":{"STOP_ID":"20299","STOP_NAME":"Bunyip Railway Station (Bunyip)","LATITUDE":-38.099108,"LONGITUDE":145.720757},"geometry":{"type":"Point","coordinates":[145.72075700000005,-38.099108]}},{"type":"Feature","properties":{"STOP_ID":"20300","STOP_NAME":"Camperdown Railway Station (Camperdown)","LATITUDE":-38.228901,"LONGITUDE":143.150928},"geometry":{"type":"Point","coordinates":[143.15092800000002,-38.22890099999995]}},{"type":"Feature","properties":{"STOP_ID":"20301","STOP_NAME":"Castlemaine Railway Station (Castlemaine)","LATITUDE":-37.062837,"LONGITUDE":144.213799},"geometry":{"type":"Point","coordinates":[144.213799,-37.062837]}},{"type":"Feature","properties":{"STOP_ID":"20302","STOP_NAME":"Chiltern Railway Station (Chiltern)","LATITUDE":-36.155637,"LONGITUDE":146.611375},"geometry":{"type":"Point","coordinates":[146.61137500000007,-36.155636999999956]}},{"type":"Feature","properties":{"STOP_ID":"20303","STOP_NAME":"Clarkefield Railway Station (Clarkefield)","LATITUDE":-37.483498,"LONGITUDE":144.745373},"geometry":{"type":"Point","coordinates":[144.7453730000001,-37.483498]}},{"type":"Feature","properties":{"STOP_ID":"20304","STOP_NAME":"Colac Railway Station (Colac)","LATITUDE":-38.343378,"LONGITUDE":143.586653},"geometry":{"type":"Point","coordinates":[143.58665300000007,-38.34337799999997]}},{"type":"Feature","properties":{"STOP_ID":"20305","STOP_NAME":"Corio Railway Station (Corio)","LATITUDE":-38.072831,"LONGITUDE":144.379768},"geometry":{"type":"Point","coordinates":[144.379768,-38.07283099999995]}},{"type":"Feature","properties":{"STOP_ID":"20306","STOP_NAME":"Dingee Railway Station (Dingee)","LATITUDE":-36.369233,"LONGITUDE":144.23112},"geometry":{"type":"Point","coordinates":[144.23112000000003,-36.36923299999995]}},{"type":"Feature","properties":{"STOP_ID":"20307","STOP_NAME":"Donnybrook Railway Station (Donnybrook)","LATITUDE":-37.54259,"LONGITUDE":144.96986},"geometry":{"type":"Point","coordinates":[144.96986000000004,-37.54258999999996]}},{"type":"Feature","properties":{"STOP_ID":"20308","STOP_NAME":"Drouin Railway Station (Drouin)","LATITUDE":-38.136452,"LONGITUDE":145.855947},"geometry":{"type":"Point","coordinates":[145.85594700000001,-38.13645199999996]}},{"type":"Feature","properties":{"STOP_ID":"20309","STOP_NAME":"Eaglehawk Railway Station (Eaglehawk)","LATITUDE":-36.718525,"LONGITUDE":144.24838},"geometry":{"type":"Point","coordinates":[144.24838,-36.718525]}},{"type":"Feature","properties":{"STOP_ID":"20310","STOP_NAME":"Echuca Railway Station (Echuca)","LATITUDE":-36.130982,"LONGITUDE":144.753459},"geometry":{"type":"Point","coordinates":[144.75345900000002,-36.13098199999996]}},{"type":"Feature","properties":{"STOP_ID":"20311","STOP_NAME":"Elmore Railway Station (Elmore)","LATITUDE":-36.49502,"LONGITUDE":144.607758},"geometry":{"type":"Point","coordinates":[144.607758,-36.495019999999954]}},{"type":"Feature","properties":{"STOP_ID":"20312","STOP_NAME":"Euroa Railway Station (Euroa)","LATITUDE":-36.749146,"LONGITUDE":145.567864},"geometry":{"type":"Point","coordinates":[145.567864,-36.749145999999996]}},{"type":"Feature","properties":{"STOP_ID":"20313","STOP_NAME":"Garfield Railway Station (Garfield)","LATITUDE":-38.091031,"LONGITUDE":145.674225},"geometry":{"type":"Point","coordinates":[145.67422499999998,-38.09103099999999]}},{"type":"Feature","properties":{"STOP_ID":"20314","STOP_NAME":"Geelong Railway Station (Geelong)","LATITUDE":-38.144242,"LONGITUDE":144.354989},"geometry":{"type":"Point","coordinates":[144.35498900000005,-38.14424199999996]}},{"type":"Feature","properties":{"STOP_ID":"20315","STOP_NAME":"Gisborne Railway Station (New Gisborne)","LATITUDE":-37.458825,"LONGITUDE":144.598722},"geometry":{"type":"Point","coordinates":[144.59872200000007,-37.45882499999999]}},{"type":"Feature","properties":{"STOP_ID":"20316","STOP_NAME":"Heathcote Junction Railway Station (Heathcote Junction)","LATITUDE":-37.367734,"LONGITUDE":145.02631},"geometry":{"type":"Point","coordinates":[145.02631000000008,-37.367733999999984]}},{"type":"Feature","properties":{"STOP_ID":"20317","STOP_NAME":"Kangaroo Flat Railway Station (Kangaroo Flat)","LATITUDE":-36.794834,"LONGITUDE":144.24899},"geometry":{"type":"Point","coordinates":[144.24899000000005,-36.79483399999998]}},{"type":"Feature","properties":{"STOP_ID":"20318","STOP_NAME":"Kerang Railway Station (Kerang)","LATITUDE":-35.733122,"LONGITUDE":143.924425},"geometry":{"type":"Point","coordinates":[143.92442500000004,-35.73312199999998]}},{"type":"Feature","properties":{"STOP_ID":"20319","STOP_NAME":"Kilmore East Railway Station (Kilmore East)","LATITUDE":-37.29321,"LONGITUDE":144.983566},"geometry":{"type":"Point","coordinates":[144.983566,-37.29320999999999]}},{"type":"Feature","properties":{"STOP_ID":"20320","STOP_NAME":"Kyneton Railway Station (Kyneton)","LATITUDE":-37.258279,"LONGITUDE":144.450602},"geometry":{"type":"Point","coordinates":[144.450602,-37.25827899999996]}},{"type":"Feature","properties":{"STOP_ID":"20321","STOP_NAME":"Lara Railway Station (Lara)","LATITUDE":-38.022428,"LONGITUDE":144.414404},"geometry":{"type":"Point","coordinates":[144.414404,-38.02242799999999]}},{"type":"Feature","properties":{"STOP_ID":"20323","STOP_NAME":"Little River Railway Station (Little River)","LATITUDE":-37.962929,"LONGITUDE":144.498485},"geometry":{"type":"Point","coordinates":[144.49848500000007,-37.962928999999974]}},{"type":"Feature","properties":{"STOP_ID":"20324","STOP_NAME":"Longwarry Railway Station (Longwarry)","LATITUDE":-38.110992,"LONGITUDE":145.76686},"geometry":{"type":"Point","coordinates":[145.76686000000007,-38.11099199999995]}},{"type":"Feature","properties":{"STOP_ID":"20325","STOP_NAME":"Macedon Railway Station (Macedon)","LATITUDE":-37.423573,"LONGITUDE":144.561397},"geometry":{"type":"Point","coordinates":[144.56139700000006,-37.423572999999976]}},{"type":"Feature","properties":{"STOP_ID":"20326","STOP_NAME":"Malmsbury Railway Station (Malmsbury)","LATITUDE":-37.18974,"LONGITUDE":144.375323},"geometry":{"type":"Point","coordinates":[144.37532299999998,-37.18973999999997]}},{"type":"Feature","properties":{"STOP_ID":"20327","STOP_NAME":"Marshall Railway Station (Marshall)","LATITUDE":-38.198549,"LONGITUDE":144.355057},"geometry":{"type":"Point","coordinates":[144.355057,-38.19854899999996]}},{"type":"Feature","properties":{"STOP_ID":"20328","STOP_NAME":"Moe Railway Station (Moe)","LATITUDE":-38.176715,"LONGITUDE":146.262697},"geometry":{"type":"Point","coordinates":[146.262697,-38.176715]}},{"type":"Feature","properties":{"STOP_ID":"20329","STOP_NAME":"Mooroopna Railway Station (Mooroopna)","LATITUDE":-36.399128,"LONGITUDE":145.358215},"geometry":{"type":"Point","coordinates":[145.3582150000001,-36.39912799999996]}},{"type":"Feature","properties":{"STOP_ID":"20330","STOP_NAME":"Morwell Railway Station (Morwell)","LATITUDE":-38.236719,"LONGITUDE":146.396753},"geometry":{"type":"Point","coordinates":[146.396753,-38.236718999999994]}},{"type":"Feature","properties":{"STOP_ID":"20331","STOP_NAME":"Murchison East Railway Station (Murchison East)","LATITUDE":-36.613148,"LONGITUDE":145.240636},"geometry":{"type":"Point","coordinates":[145.240636,-36.61314799999997]}},{"type":"Feature","properties":{"STOP_ID":"20332","STOP_NAME":"Nagambie Railway Station (Nagambie)","LATITUDE":-36.785464,"LONGITUDE":145.160357},"geometry":{"type":"Point","coordinates":[145.1603570000001,-36.78546399999999]}},{"type":"Feature","properties":{"STOP_ID":"20333","STOP_NAME":"Nar Nar Goon Railway Station (Nar Nar Goon)","LATITUDE":-38.081592,"LONGITUDE":145.571666},"geometry":{"type":"Point","coordinates":[145.57166600000005,-38.081592]}},{"type":"Feature","properties":{"STOP_ID":"20334","STOP_NAME":"North Geelong Railway Station (North Geelong)","LATITUDE":-38.122835,"LONGITUDE":144.352272},"geometry":{"type":"Point","coordinates":[144.35227200000008,-38.12283499999995]}},{"type":"Feature","properties":{"STOP_ID":"20335","STOP_NAME":"North Shore Railway Station (North Shore)","LATITUDE":-38.098377,"LONGITUDE":144.365321},"geometry":{"type":"Point","coordinates":[144.365321,-38.09837699999997]}},{"type":"Feature","properties":{"STOP_ID":"20336","STOP_NAME":"Pyramid Railway Station (Pyramid Hill)","LATITUDE":-36.053113,"LONGITUDE":144.113133},"geometry":{"type":"Point","coordinates":[144.11313300000006,-36.053112999999996]}},{"type":"Feature","properties":{"STOP_ID":"20337","STOP_NAME":"Riddells Creek Railway Station (Riddells Creek)","LATITUDE":-37.465124,"LONGITUDE":144.679831},"geometry":{"type":"Point","coordinates":[144.67983100000004,-37.465124]}},{"type":"Feature","properties":{"STOP_ID":"20338","STOP_NAME":"Rochester Railway Station (Rochester)","LATITUDE":-36.36236,"LONGITUDE":144.698681},"geometry":{"type":"Point","coordinates":[144.69868100000008,-36.36235999999997]}},{"type":"Feature","properties":{"STOP_ID":"20339","STOP_NAME":"Rosedale Railway Station (Rosedale)","LATITUDE":-38.156404,"LONGITUDE":146.786966},"geometry":{"type":"Point","coordinates":[146.786966,-38.15640399999995]}},{"type":"Feature","properties":{"STOP_ID":"20341","STOP_NAME":"Sale Railway Station (Sale)","LATITUDE":-38.103103,"LONGITUDE":147.054805},"geometry":{"type":"Point","coordinates":[147.054805,-38.103102999999976]}},{"type":"Feature","properties":{"STOP_ID":"20342","STOP_NAME":"Seymour Railway Station (Seymour)","LATITUDE":-37.024729,"LONGITUDE":145.137729},"geometry":{"type":"Point","coordinates":[145.13772900000004,-37.02472899999998]}},{"type":"Feature","properties":{"STOP_ID":"20343","STOP_NAME":"Shepparton Railway Station (Shepparton)","LATITUDE":-36.383791,"LONGITUDE":145.406497},"geometry":{"type":"Point","coordinates":[145.40649700000006,-36.383790999999974]}},{"type":"Feature","properties":{"STOP_ID":"20344","STOP_NAME":"South Geelong Railway Station (South Geelong)","LATITUDE":-38.158659,"LONGITUDE":144.358987},"geometry":{"type":"Point","coordinates":[144.35898700000007,-38.158659]}},{"type":"Feature","properties":{"STOP_ID":"20345","STOP_NAME":"Springhurst Railway Station (Springhurst)","LATITUDE":-36.185893,"LONGITUDE":146.470417},"geometry":{"type":"Point","coordinates":[146.470417,-36.185892999999965]}},{"type":"Feature","properties":{"STOP_ID":"20346","STOP_NAME":"Stratford Railway Station (Stratford)","LATITUDE":-37.967047,"LONGITUDE":147.081469},"geometry":{"type":"Point","coordinates":[147.08146900000008,-37.96704699999998]}},{"type":"Feature","properties":{"STOP_ID":"20347","STOP_NAME":"Swan Hill Railway Station (Swan Hill)","LATITUDE":-35.341114,"LONGITUDE":143.562343},"geometry":{"type":"Point","coordinates":[143.56234300000006,-35.341114000000005]}},{"type":"Feature","properties":{"STOP_ID":"20348","STOP_NAME":"Tallarook Railway Station (Tallarook)","LATITUDE":-37.092335,"LONGITUDE":145.102997},"geometry":{"type":"Point","coordinates":[145.10299700000007,-37.09233499999999]}},{"type":"Feature","properties":{"STOP_ID":"20349","STOP_NAME":"Terang Railway Station (Terang)","LATITUDE":-38.236212,"LONGITUDE":142.911472},"geometry":{"type":"Point","coordinates":[142.911472,-38.236211999999966]}},{"type":"Feature","properties":{"STOP_ID":"20350","STOP_NAME":"Trafalgar Railway Station (Trafalgar)","LATITUDE":-38.207242,"LONGITUDE":146.154773},"geometry":{"type":"Point","coordinates":[146.15477299999998,-38.20724199999995]}},{"type":"Feature","properties":{"STOP_ID":"20351","STOP_NAME":"Traralgon Railway Station (Traralgon)","LATITUDE":-38.198885,"LONGITUDE":146.537882},"geometry":{"type":"Point","coordinates":[146.53788200000008,-38.19888499999996]}},{"type":"Feature","properties":{"STOP_ID":"20352","STOP_NAME":"Tynong Railway Station (Tynong)","LATITUDE":-38.084996,"LONGITUDE":145.628234},"geometry":{"type":"Point","coordinates":[145.62823400000002,-38.08499599999999]}},{"type":"Feature","properties":{"STOP_ID":"20353","STOP_NAME":"Violet Town Railway Station (Violet Town)","LATITUDE":-36.638816,"LONGITUDE":145.715923},"geometry":{"type":"Point","coordinates":[145.7159230000001,-36.63881599999996]}},{"type":"Feature","properties":{"STOP_ID":"20355","STOP_NAME":"Wandong Railway Station (Wandong)","LATITUDE":-37.354677,"LONGITUDE":145.026415},"geometry":{"type":"Point","coordinates":[145.02641500000004,-37.35467699999998]}},{"type":"Feature","properties":{"STOP_ID":"20356","STOP_NAME":"Wangaratta Railway Station (Wangaratta)","LATITUDE":-36.355101,"LONGITUDE":146.317038},"geometry":{"type":"Point","coordinates":[146.31703800000003,-36.35510099999999]}},{"type":"Feature","properties":{"STOP_ID":"20357","STOP_NAME":"Warragul Railway Station (Warragul)","LATITUDE":-38.165224,"LONGITUDE":145.933085},"geometry":{"type":"Point","coordinates":[145.933085,-38.16522399999997]}},{"type":"Feature","properties":{"STOP_ID":"20358","STOP_NAME":"Warrnambool Railway Station (Warrnambool)","LATITUDE":-38.385014,"LONGITUDE":142.475545},"geometry":{"type":"Point","coordinates":[142.475545,-38.385013999999956]}},{"type":"Feature","properties":{"STOP_ID":"20359","STOP_NAME":"Winchelsea Railway Station (Winchelsea)","LATITUDE":-38.240135,"LONGITUDE":143.984134},"geometry":{"type":"Point","coordinates":[143.98413400000004,-38.24013499999995]}},{"type":"Feature","properties":{"STOP_ID":"20360","STOP_NAME":"Wodonga Railway Station (Wodonga)","LATITUDE":-36.105827,"LONGITUDE":146.871266},"geometry":{"type":"Point","coordinates":[146.871266,-36.10582699999998]}},{"type":"Feature","properties":{"STOP_ID":"20361","STOP_NAME":"Woodend Railway Station (Woodend)","LATITUDE":-37.358799,"LONGITUDE":144.52589},"geometry":{"type":"Point","coordinates":[144.52589,-37.358798999999976]}},{"type":"Feature","properties":{"STOP_ID":"20362","STOP_NAME":"Yarragon Railway Station (Yarragon)","LATITUDE":-38.203158,"LONGITUDE":146.063063},"geometry":{"type":"Point","coordinates":[146.06306300000006,-38.20315799999997]}},{"type":"Feature","properties":{"STOP_ID":"20616","STOP_NAME":"Nhill Railway Station (Nhill)","LATITUDE":-36.332222,"LONGITUDE":141.65389},"geometry":{"type":"Point","coordinates":[141.65389000000005,-36.332222]}},{"type":"Feature","properties":{"STOP_ID":"20617","STOP_NAME":"Dimboola Railway Station (Dimboola)","LATITUDE":-36.45418,"LONGITUDE":142.032464},"geometry":{"type":"Point","coordinates":[142.032464,-36.45417999999995]}},{"type":"Feature","properties":{"STOP_ID":"20618","STOP_NAME":"Horsham Railway Station (Horsham)","LATITUDE":-36.707501,"LONGITUDE":142.200555},"geometry":{"type":"Point","coordinates":[142.200555,-36.70750099999998]}},{"type":"Feature","properties":{"STOP_ID":"22238","STOP_NAME":"Flinders Street Railway Station (Melbourne City)","LATITUDE":-37.818305,"LONGITUDE":144.966964},"geometry":{"type":"Point","coordinates":[144.96696400000008,-37.81830499999995]}},{"type":"Feature","properties":{"STOP_ID":"22239","STOP_NAME":"North Melbourne Railway Station (West Melbourne)","LATITUDE":-37.80631,"LONGITUDE":144.94151},"geometry":{"type":"Point","coordinates":[144.94151,-37.806309999999996]}},{"type":"Feature","properties":{"STOP_ID":"22240","STOP_NAME":"Footscray Railway Station (Footscray)","LATITUDE":-37.801413,"LONGITUDE":144.90202},"geometry":{"type":"Point","coordinates":[144.90202,-37.80141299999997]}},{"type":"Feature","properties":{"STOP_ID":"22241","STOP_NAME":"Sunshine Railway Station (Sunshine)","LATITUDE":-37.788536,"LONGITUDE":144.832878},"geometry":{"type":"Point","coordinates":[144.83287800000005,-37.788535999999965]}},{"type":"Feature","properties":{"STOP_ID":"22244","STOP_NAME":"Watergardens Railway Station (Sydenham)","LATITUDE":-37.701129,"LONGITUDE":144.77418},"geometry":{"type":"Point","coordinates":[144.77418,-37.70112899999998]}},{"type":"Feature","properties":{"STOP_ID":"22247","STOP_NAME":"Richmond Railway Station (Richmond)","LATITUDE":-37.824074,"LONGITUDE":144.990164},"geometry":{"type":"Point","coordinates":[144.99016400000005,-37.824073999999996]}},{"type":"Feature","properties":{"STOP_ID":"22248","STOP_NAME":"Caulfield Railway Station (Caulfield East)","LATITUDE":-37.877459,"LONGITUDE":145.042525},"geometry":{"type":"Point","coordinates":[145.04252500000007,-37.87745899999999]}},{"type":"Feature","properties":{"STOP_ID":"22249","STOP_NAME":"Clayton Railway Station (Clayton)","LATITUDE":-37.924683,"LONGITUDE":145.120534},"geometry":{"type":"Point","coordinates":[145.12053400000002,-37.92468299999996]}},{"type":"Feature","properties":{"STOP_ID":"22250","STOP_NAME":"Dandenong Railway Station (Dandenong)","LATITUDE":-37.989968,"LONGITUDE":145.209725},"geometry":{"type":"Point","coordinates":[145.20972500000005,-37.989967999999976]}},{"type":"Feature","properties":{"STOP_ID":"22251","STOP_NAME":"Berwick Railway Station (Berwick)","LATITUDE":-38.040408,"LONGITUDE":145.345715},"geometry":{"type":"Point","coordinates":[145.34571500000004,-38.04040799999996]}},{"type":"Feature","properties":{"STOP_ID":"22252","STOP_NAME":"Pakenham Railway Station (Pakenham)","LATITUDE":-38.080614,"LONGITUDE":145.486368},"geometry":{"type":"Point","coordinates":[145.48636800000008,-38.08061399999997]}},{"type":"Feature","properties":{"STOP_ID":"22253","STOP_NAME":"Essendon Railway Station (Essendon)","LATITUDE":-37.756012,"LONGITUDE":144.916198},"geometry":{"type":"Point","coordinates":[144.916198,-37.756012]}},{"type":"Feature","properties":{"STOP_ID":"22254","STOP_NAME":"Broadmeadows Railway Station (Broadmeadows)","LATITUDE":-37.683049,"LONGITUDE":144.919613},"geometry":{"type":"Point","coordinates":[144.91961300000003,-37.68304899999998]}},{"type":"Feature","properties":{"STOP_ID":"22257","STOP_NAME":"Sherwood Park Railway Station (Warrnambool)","LATITUDE":-38.386394,"LONGITUDE":142.540565},"geometry":{"type":"Point","coordinates":[142.54056500000002,-38.386393999999996]}},{"type":"Feature","properties":{"STOP_ID":"43469","STOP_NAME":"Wendouree Railway Station (Wendouree)","LATITUDE":-37.539716,"LONGITUDE":143.820068},"geometry":{"type":"Point","coordinates":[143.820068,-37.539716]}},{"type":"Feature","properties":{"STOP_ID":"44951","STOP_NAME":"Creswick Railway Station (Creswick)","LATITUDE":-37.424605,"LONGITUDE":143.888124},"geometry":{"type":"Point","coordinates":[143.88812400000006,-37.424604999999985]}},{"type":"Feature","properties":{"STOP_ID":"44952","STOP_NAME":"Clunes Railway Station (Clunes)","LATITUDE":-37.303141,"LONGITUDE":143.781577},"geometry":{"type":"Point","coordinates":[143.78157700000008,-37.30314099999998]}},{"type":"Feature","properties":{"STOP_ID":"44953","STOP_NAME":"Maryborough Railway Station (Maryborough)","LATITUDE":-37.050908,"LONGITUDE":143.742402},"geometry":{"type":"Point","coordinates":[143.74240200000008,-37.05090799999999]}},{"type":"Feature","properties":{"STOP_ID":"45918","STOP_NAME":"Stawell Railway Station (Stawell)","LATITUDE":-37.05924,"LONGITUDE":142.773538},"geometry":{"type":"Point","coordinates":[142.77353800000003,-37.05923999999999]}},{"type":"Feature","properties":{"STOP_ID":"47482","STOP_NAME":"Talbot Railway Station (Talbot)","LATITUDE":-37.172899,"LONGITUDE":143.70564},"geometry":{"type":"Point","coordinates":[143.70564000000002,-37.17289899999997]}},{"type":"Feature","properties":{"STOP_ID":"47641","STOP_NAME":"Waurn Ponds Railway Station (Waurn Ponds)","LATITUDE":-38.215814,"LONGITUDE":144.306819},"geometry":{"type":"Point","coordinates":[144.30681900000002,-38.215813999999966]}},{"type":"Feature","properties":{"STOP_ID":"47642","STOP_NAME":"Epsom Railway Station (Epsom)","LATITUDE":-36.706342,"LONGITUDE":144.32104},"geometry":{"type":"Point","coordinates":[144.32104000000004,-36.70634199999995]}},{"type":"Feature","properties":{"STOP_ID":"47647","STOP_NAME":"Wyndham Vale Railway Station (Wyndham Vale)","LATITUDE":-37.871782,"LONGITUDE":144.608472},"geometry":{"type":"Point","coordinates":[144.608472,-37.871781999999996]}},{"type":"Feature","properties":{"STOP_ID":"47648","STOP_NAME":"Tarneit Railway Station (Tarneit)","LATITUDE":-37.832168,"LONGITUDE":144.694714},"geometry":{"type":"Point","coordinates":[144.6947140000001,-37.83216799999997]}},{"type":"Feature","properties":{"STOP_ID":"52011","STOP_NAME":"Caroline Springs Railway Station (Ravenhall)","LATITUDE":-37.767153,"LONGITUDE":144.738022},"geometry":{"type":"Point","coordinates":[144.738022,-37.76715299999995]}}]}
