{"type":"FeatureCollection","bbox":[144.87782900000002,-37.914266,145.18208900000002,-37.67910999999998],"features":[{"type":"Feature","properties":{"STOP_ID":"1292","STOP_NAME":"38-Renown St/Sydney Rd (Coburg)","LATITUDE":-37.731619,"LONGITUDE":144.964266,"TICKETZONE":"1","ROUTEUSSP":"19"},"geometry":{"type":"Point","coordinates":[144.96426600000007,-37.73161899999997]}},{"type":"Feature","properties":{"STOP_ID":"13401","STOP_NAME":"28-Punt Rd/High St (Prahran)","LATITUDE":-37.850564,"LONGITUDE":144.984047,"TICKETZONE":"1","ROUTEUSSP":"6"},"geometry":{"type":"Point","coordinates":[144.98404700000003,-37.85056399999996]}},{"type":"Feature","properties":{"STOP_ID":"13995","STOP_NAME":"44-Barb St/Raleigh Rd (Maribyrnong)","LATITUDE":-37.768891,"LONGITUDE":144.891985,"TICKETZONE":"1","ROUTEUSSP":"82,57"},"geometry":{"type":"Point","coordinates":[144.8919850000001,-37.768890999999996]}},{"type":"Feature","properties":{"STOP_ID":"14033","STOP_NAME":"29-Perth St/High St (Prahran)","LATITUDE":-37.85105,"LONGITUDE":144.987727,"TICKETZONE":"1","ROUTEUSSP":"6"},"geometry":{"type":"Point","coordinates":[144.98772700000006,-37.85104999999999]}},{"type":"Feature","properties":{"STOP_ID":"14614","STOP_NAME":"30-Prahran Station/High St (Prahran)","LATITUDE":-37.851319,"LONGITUDE":144.989731,"TICKETZONE":"1","ROUTEUSSP":"6"},"geometry":{"type":"Point","coordinates":[144.989731,-37.85131899999999]}},{"type":"Feature","properties":{"STOP_ID":"14728","STOP_NAME":"31-Chapel St/High St (Prahran)","LATITUDE":-37.851756,"LONGITUDE":144.993209,"TICKETZONE":"1","ROUTEUSSP":"6"},"geometry":{"type":"Point","coordinates":[144.99320899999998,-37.851755999999966]}},{"type":"Feature","properties":{"STOP_ID":"15559","STOP_NAME":"45-Randall St/Raleigh Rd (Maribyrnong)","LATITUDE":-37.768629,"LONGITUDE":144.888938,"TICKETZONE":"1","ROUTEUSSP":"82,57"},"geometry":{"type":"Point","coordinates":[144.88893800000005,-37.768628999999976]}},{"type":"Feature","properties":{"STOP_ID":"15699","STOP_NAME":"32-Hornby St/High St (Prahran)","LATITUDE":-37.852199,"LONGITUDE":144.996436,"TICKETZONE":"1","ROUTEUSSP":"6"},"geometry":{"type":"Point","coordinates":[144.99643600000002,-37.852198999999985]}},{"type":"Feature","properties":{"STOP_ID":"1575","STOP_NAME":"52-Burke Rd/Wattletree Rd (Malvern East)","LATITUDE":-37.865076,"LONGITUDE":145.050071,"TICKETZONE":"1","ROUTEUSSP":"5"},"geometry":{"type":"Point","coordinates":[145.050071,-37.86507599999999]}},{"type":"Feature","properties":{"STOP_ID":"16610","STOP_NAME":"33-The Avenue/High St (Prahran)","LATITUDE":-37.852434,"LONGITUDE":144.998089,"TICKETZONE":"1","ROUTEUSSP":"6"},"geometry":{"type":"Point","coordinates":[144.99808900000005,-37.85243399999996]}},{"type":"Feature","properties":{"STOP_ID":"16713","STOP_NAME":"34-Bell St/Sydney Rd (Coburg)","LATITUDE":-37.741471,"LONGITUDE":144.96647,"TICKETZONE":"1","ROUTEUSSP":"19"},"geometry":{"type":"Point","coordinates":[144.96647000000007,-37.74147099999999]}},{"type":"Feature","properties":{"STOP_ID":"16714","STOP_NAME":"33-Coburg Market/Sydney Rd (Coburg)","LATITUDE":-37.743259,"LONGITUDE":144.966148,"TICKETZONE":"1","ROUTEUSSP":"19"},"geometry":{"type":"Point","coordinates":[144.9661480000001,-37.743258999999966]}},{"type":"Feature","properties":{"STOP_ID":"16715","STOP_NAME":"32-Munro St/Sydney Rd (Coburg)","LATITUDE":-37.745065,"LONGITUDE":144.965838,"TICKETZONE":"1","ROUTEUSSP":"19"},"geometry":{"type":"Point","coordinates":[144.96583800000008,-37.745064999999954]}},{"type":"Feature","properties":{"STOP_ID":"16716","STOP_NAME":"31-Reynard St/Sydney Rd (Coburg)","LATITUDE":-37.74874,"LONGITUDE":144.965204,"TICKETZONE":"1","ROUTEUSSP":"19"},"geometry":{"type":"Point","coordinates":[144.96520400000009,-37.74874]}},{"type":"Feature","properties":{"STOP_ID":"16717","STOP_NAME":"30-The Avenue/Sydney Rd (Coburg)","LATITUDE":-37.752073,"LONGITUDE":144.964636,"TICKETZONE":"1","ROUTEUSSP":"19"},"geometry":{"type":"Point","coordinates":[144.96463600000004,-37.752072999999996]}},{"type":"Feature","properties":{"STOP_ID":"16718","STOP_NAME":"34-Lewisham Rd/High St (Prahran)","LATITUDE":-37.852651,"LONGITUDE":144.999685,"TICKETZONE":"1","ROUTEUSSP":"6"},"geometry":{"type":"Point","coordinates":[144.999685,-37.85265099999998]}},{"type":"Feature","properties":{"STOP_ID":"16719","STOP_NAME":"28-Moreland Rd/Sydney Rd (Brunswick)","LATITUDE":-37.75564,"LONGITUDE":144.964016,"TICKETZONE":"1","ROUTEUSSP":"19"},"geometry":{"type":"Point","coordinates":[144.96401600000002,-37.75563999999997]}},{"type":"Feature","properties":{"STOP_ID":"16720","STOP_NAME":"27-Brunswick Tram Depot/Sydney Rd (Brunswick)","LATITUDE":-37.757815,"LONGITUDE":144.963639,"TICKETZONE":"1","ROUTEUSSP":"19"},"geometry":{"type":"Point","coordinates":[144.96363900000006,-37.757814999999994]}},{"type":"Feature","properties":{"STOP_ID":"16721","STOP_NAME":"26-Albion St/Sydney Rd (Brunswick)","LATITUDE":-37.760959,"LONGITUDE":144.963087,"TICKETZONE":"1","ROUTEUSSP":"19"},"geometry":{"type":"Point","coordinates":[144.9630870000001,-37.76095899999996]}},{"type":"Feature","properties":{"STOP_ID":"16722","STOP_NAME":"25-Stewart St/Sydney Rd (Brunswick)","LATITUDE":-37.763232,"LONGITUDE":144.962695,"TICKETZONE":"1","ROUTEUSSP":"19"},"geometry":{"type":"Point","coordinates":[144.96269500000005,-37.76323199999996]}},{"type":"Feature","properties":{"STOP_ID":"16723","STOP_NAME":"24-Brunswick Baptist Church/Sydney Rd (Brunswick)","LATITUDE":-37.765578,"LONGITUDE":144.962302,"TICKETZONE":"1","ROUTEUSSP":"19"},"geometry":{"type":"Point","coordinates":[144.96230200000002,-37.765578000000005]}},{"type":"Feature","properties":{"STOP_ID":"16724","STOP_NAME":"23-Victoria St/Sydney Rd (Brunswick)","LATITUDE":-37.767141,"LONGITUDE":144.962032,"TICKETZONE":"1","ROUTEUSSP":"19"},"geometry":{"type":"Point","coordinates":[144.96203200000002,-37.76714099999998]}},{"type":"Feature","properties":{"STOP_ID":"16725","STOP_NAME":"22-Albert St/Sydney Rd (Brunswick)","LATITUDE":-37.768947,"LONGITUDE":144.961721,"TICKETZONE":"1","ROUTEUSSP":"19"},"geometry":{"type":"Point","coordinates":[144.961721,-37.76894699999997]}},{"type":"Feature","properties":{"STOP_ID":"16726","STOP_NAME":"21-Brunswick Town Hall/Sydney Rd (Brunswick)","LATITUDE":-37.771643,"LONGITUDE":144.961261,"TICKETZONE":"1","ROUTEUSSP":"19"},"geometry":{"type":"Point","coordinates":[144.96126100000004,-37.77164299999998]}},{"type":"Feature","properties":{"STOP_ID":"16727","STOP_NAME":"20-Barkly Square/115 Sydney Rd (Brunswick)","LATITUDE":-37.774842,"LONGITUDE":144.960742,"TICKETZONE":"1","ROUTEUSSP":"19"},"geometry":{"type":"Point","coordinates":[144.96074199999998,-37.77484199999998]}},{"type":"Feature","properties":{"STOP_ID":"16728","STOP_NAME":"19-Brunswick Rd/Sydney Rd (Brunswick)","LATITUDE":-37.777295,"LONGITUDE":144.960334,"TICKETZONE":"1","ROUTEUSSP":"19"},"geometry":{"type":"Point","coordinates":[144.960334,-37.77729499999998]}},{"type":"Feature","properties":{"STOP_ID":"16729","STOP_NAME":"18-Princes Park/Royal Pde (Parkville)","LATITUDE":-37.779379,"LONGITUDE":144.959936,"TICKETZONE":"1","ROUTEUSSP":"19"},"geometry":{"type":"Point","coordinates":[144.95993600000008,-37.779379000000006]}},{"type":"Feature","properties":{"STOP_ID":"16730","STOP_NAME":"17-Ievers St/Royal Pde (Parkville)","LATITUDE":-37.781888,"LONGITUDE":144.95964,"TICKETZONE":"1","ROUTEUSSP":"19"},"geometry":{"type":"Point","coordinates":[144.95964000000004,-37.78188799999998]}},{"type":"Feature","properties":{"STOP_ID":"16731","STOP_NAME":"16-Visy Park/Royal Pde (Parkville)","LATITUDE":-37.784856,"LONGITUDE":144.959274,"TICKETZONE":"1","ROUTEUSSP":"19"},"geometry":{"type":"Point","coordinates":[144.95927400000005,-37.78485599999999]}},{"type":"Feature","properties":{"STOP_ID":"16732","STOP_NAME":"15-Leonard St/Royal Pde (Parkville)","LATITUDE":-37.787931,"LONGITUDE":144.958894,"TICKETZONE":"1","ROUTEUSSP":"19"},"geometry":{"type":"Point","coordinates":[144.958894,-37.78793099999996]}},{"type":"Feature","properties":{"STOP_ID":"16733","STOP_NAME":"14-Macarthur Rd/Royal Pde (Parkville)","LATITUDE":-37.790017,"LONGITUDE":144.95861,"TICKETZONE":"1","ROUTEUSSP":"19"},"geometry":{"type":"Point","coordinates":[144.95861000000002,-37.79001699999998]}},{"type":"Feature","properties":{"STOP_ID":"16734","STOP_NAME":"13-Gatehouse St/Royal Pde (Parkville)","LATITUDE":-37.792679,"LONGITUDE":144.95831,"TICKETZONE":"1","ROUTEUSSP":"19"},"geometry":{"type":"Point","coordinates":[144.95830999999998,-37.792678999999964]}},{"type":"Feature","properties":{"STOP_ID":"16735","STOP_NAME":"12-Morrah St/Royal Pde (Parkville)","LATITUDE":-37.795656,"LONGITUDE":144.957944,"TICKETZONE":"1","ROUTEUSSP":"19"},"geometry":{"type":"Point","coordinates":[144.957944,-37.79565599999995]}},{"type":"Feature","properties":{"STOP_ID":"16736","STOP_NAME":"11-University of Melbourne/Royal Pde (Parkville)","LATITUDE":-37.798273,"LONGITUDE":144.957656,"TICKETZONE":"1","ROUTEUSSP":"19"},"geometry":{"type":"Point","coordinates":[144.95765600000004,-37.798272999999995]}},{"type":"Feature","properties":{"STOP_ID":"16738","STOP_NAME":"35-Williams Rd/High St (Prahran)","LATITUDE":-37.853011,"LONGITUDE":145.002324,"TICKETZONE":"1","ROUTEUSSP":"6"},"geometry":{"type":"Point","coordinates":[145.00232400000004,-37.85301099999998]}},{"type":"Feature","properties":{"STOP_ID":"16739","STOP_NAME":"36-Chatsworth Rd/High St (Prahran)","LATITUDE":-37.853556,"LONGITUDE":145.006276,"TICKETZONE":"1","ROUTEUSSP":"6"},"geometry":{"type":"Point","coordinates":[145.00627600000007,-37.85355599999997]}},{"type":"Feature","properties":{"STOP_ID":"16740","STOP_NAME":"37-Airlie Ave/High St (Prahran)","LATITUDE":-37.853866,"LONGITUDE":145.008654,"TICKETZONE":"1","ROUTEUSSP":"6"},"geometry":{"type":"Point","coordinates":[145.00865399999998,-37.85386599999998]}},{"type":"Feature","properties":{"STOP_ID":"16741","STOP_NAME":"38-Orrong Rd/High St (Prahran)","LATITUDE":-37.85422,"LONGITUDE":145.011452,"TICKETZONE":"1","ROUTEUSSP":"6"},"geometry":{"type":"Point","coordinates":[145.01145200000008,-37.85422]}},{"type":"Feature","properties":{"STOP_ID":"16742","STOP_NAME":"39-Auburn Gr/High St (Armadale)","LATITUDE":-37.854685,"LONGITUDE":145.014974,"TICKETZONE":"1","ROUTEUSSP":"6"},"geometry":{"type":"Point","coordinates":[145.01497400000005,-37.85468499999996]}},{"type":"Feature","properties":{"STOP_ID":"16743","STOP_NAME":"40-Armadale Station/High St (Armadale)","LATITUDE":-37.855119,"LONGITUDE":145.018247,"TICKETZONE":"1","ROUTEUSSP":"6"},"geometry":{"type":"Point","coordinates":[145.0182470000001,-37.855119]}},{"type":"Feature","properties":{"STOP_ID":"16744","STOP_NAME":"41-Kooyong Rd/High St (Armadale)","LATITUDE":-37.855419,"LONGITUDE":145.020581,"TICKETZONE":"1","ROUTEUSSP":"6"},"geometry":{"type":"Point","coordinates":[145.020581,-37.85541899999998]}},{"type":"Feature","properties":{"STOP_ID":"16745","STOP_NAME":"42-Huntingtower Rd/High St (Armadale)","LATITUDE":-37.855832,"LONGITUDE":145.023673,"TICKETZONE":"1","ROUTEUSSP":"6"},"geometry":{"type":"Point","coordinates":[145.02367300000003,-37.855831999999964]}},{"type":"Feature","properties":{"STOP_ID":"16746","STOP_NAME":"43-Mercer Rd/High St (Armadale)","LATITUDE":-37.856122,"LONGITUDE":145.025938,"TICKETZONE":"1","ROUTEUSSP":"6"},"geometry":{"type":"Point","coordinates":[145.025938,-37.85612199999997]}},{"type":"Feature","properties":{"STOP_ID":"16747","STOP_NAME":"44-Glenferrie Rd/High St (Malvern)","LATITUDE":-37.856536,"LONGITUDE":145.029166,"TICKETZONE":"1","ROUTEUSSP":"6"},"geometry":{"type":"Point","coordinates":[145.02916600000003,-37.856536000000006]}},{"type":"Feature","properties":{"STOP_ID":"16748","STOP_NAME":"45-De La Salle College/High St (Malvern)","LATITUDE":-37.856942,"LONGITUDE":145.032383,"TICKETZONE":"1","ROUTEUSSP":"6"},"geometry":{"type":"Point","coordinates":[145.03238299999998,-37.856942000000004]}},{"type":"Feature","properties":{"STOP_ID":"16749","STOP_NAME":"46-Fraser St/High St (Malvern)","LATITUDE":-37.857383,"LONGITUDE":145.035611,"TICKETZONE":"1","ROUTEUSSP":"6"},"geometry":{"type":"Point","coordinates":[145.03561100000002,-37.85738299999997]}},{"type":"Feature","properties":{"STOP_ID":"16750","STOP_NAME":"47-Dixon St/High St (Malvern)","LATITUDE":-37.857694,"LONGITUDE":145.038013,"TICKETZONE":"1","ROUTEUSSP":"6"},"geometry":{"type":"Point","coordinates":[145.03801299999998,-37.85769399999998]}},{"type":"Feature","properties":{"STOP_ID":"16751","STOP_NAME":"48-Tooronga Rd/High St (Glen Iris)","LATITUDE":-37.858078,"LONGITUDE":145.041049,"TICKETZONE":"1","ROUTEUSSP":"6"},"geometry":{"type":"Point","coordinates":[145.04104900000004,-37.85807799999998]}},{"type":"Feature","properties":{"STOP_ID":"16752","STOP_NAME":"49-Harold Holt Swim Centre/High St (Glen Iris)","LATITUDE":-37.858454,"LONGITUDE":145.044198,"TICKETZONE":"1","ROUTEUSSP":"6"},"geometry":{"type":"Point","coordinates":[145.04419800000005,-37.858453999999995]}},{"type":"Feature","properties":{"STOP_ID":"16753","STOP_NAME":"50-Belmont Ave/High St (Glen Iris)","LATITUDE":-37.858945,"LONGITUDE":145.048255,"TICKETZONE":"1","ROUTEUSSP":"6"},"geometry":{"type":"Point","coordinates":[145.04825500000004,-37.858945000000006]}},{"type":"Feature","properties":{"STOP_ID":"16754","STOP_NAME":"51-Burke Rd/High St (Glen Iris)","LATITUDE":-37.85931,"LONGITUDE":145.051212,"TICKETZONE":"1","ROUTEUSSP":"6"},"geometry":{"type":"Point","coordinates":[145.05121200000008,-37.859309999999994]}},{"type":"Feature","properties":{"STOP_ID":"16755","STOP_NAME":"52-Boyanda Rd/High St (Glen Iris)","LATITUDE":-37.859614,"LONGITUDE":145.053795,"TICKETZONE":"1","ROUTEUSSP":"6"},"geometry":{"type":"Point","coordinates":[145.05379500000004,-37.859613999999965]}},{"type":"Feature","properties":{"STOP_ID":"16757","STOP_NAME":"53-Malvern Rd/High St (Glen Iris)","LATITUDE":-37.860038,"LONGITUDE":145.05658,"TICKETZONE":"1","ROUTEUSSP":"6"},"geometry":{"type":"Point","coordinates":[145.05658000000005,-37.860037999999975]}},{"type":"Feature","properties":{"STOP_ID":"16758","STOP_NAME":"52-Boyanda Rd/High St (Glen Iris)","LATITUDE":-37.859782,"LONGITUDE":145.054189,"TICKETZONE":"1","ROUTEUSSP":"6"},"geometry":{"type":"Point","coordinates":[145.05418900000006,-37.859781999999996]}},{"type":"Feature","properties":{"STOP_ID":"16759","STOP_NAME":"51-Burke Rd/High St (Glen Iris)","LATITUDE":-37.859486,"LONGITUDE":145.051503,"TICKETZONE":"1","ROUTEUSSP":"6"},"geometry":{"type":"Point","coordinates":[145.05150300000003,-37.859486000000004]}},{"type":"Feature","properties":{"STOP_ID":"16760","STOP_NAME":"50-Belmont Ave/High St (Glen Iris)","LATITUDE":-37.85911,"LONGITUDE":145.048409,"TICKETZONE":"1","ROUTEUSSP":"6"},"geometry":{"type":"Point","coordinates":[145.048409,-37.85910999999999]}},{"type":"Feature","properties":{"STOP_ID":"16761","STOP_NAME":"49-Harold Holt Swim Centre/High St (Glen Iris)","LATITUDE":-37.85867,"LONGITUDE":145.044704,"TICKETZONE":"1","ROUTEUSSP":"6"},"geometry":{"type":"Point","coordinates":[145.04470400000002,-37.85866999999996]}},{"type":"Feature","properties":{"STOP_ID":"16762","STOP_NAME":"48-Tooronga Rd/High St (Glen Iris)","LATITUDE":-37.858272,"LONGITUDE":145.041362,"TICKETZONE":"1","ROUTEUSSP":"6"},"geometry":{"type":"Point","coordinates":[145.04136200000005,-37.858272]}},{"type":"Feature","properties":{"STOP_ID":"16764","STOP_NAME":"47-Dixon St/High St (Malvern)","LATITUDE":-37.85782,"LONGITUDE":145.038009,"TICKETZONE":"1","ROUTEUSSP":"6"},"geometry":{"type":"Point","coordinates":[145.038009,-37.857820000000004]}},{"type":"Feature","properties":{"STOP_ID":"16765","STOP_NAME":"46-Fraser St/High St (Malvern)","LATITUDE":-37.857558,"LONGITUDE":145.0358,"TICKETZONE":"1","ROUTEUSSP":"6"},"geometry":{"type":"Point","coordinates":[145.0358,-37.85755799999998]}},{"type":"Feature","properties":{"STOP_ID":"16766","STOP_NAME":"45-De La Salle College/High St (Malvern)","LATITUDE":-37.857157,"LONGITUDE":145.032889,"TICKETZONE":"1","ROUTEUSSP":"6"},"geometry":{"type":"Point","coordinates":[145.03288900000007,-37.85715699999997]}},{"type":"Feature","properties":{"STOP_ID":"16767","STOP_NAME":"44-Glenferrie Rd/High St (Malvern)","LATITUDE":-37.856704,"LONGITUDE":145.029503,"TICKETZONE":"1","ROUTEUSSP":"6"},"geometry":{"type":"Point","coordinates":[145.0295030000001,-37.85670399999998]}},{"type":"Feature","properties":{"STOP_ID":"16768","STOP_NAME":"43-Mercer Rd/High St (Armadale)","LATITUDE":-37.856289,"LONGITUDE":145.026229,"TICKETZONE":"1","ROUTEUSSP":"6"},"geometry":{"type":"Point","coordinates":[145.02622900000006,-37.856289000000004]}},{"type":"Feature","properties":{"STOP_ID":"16769","STOP_NAME":"42-Huntingtower Rd/High St (Armadale)","LATITUDE":-37.855996,"LONGITUDE":145.023827,"TICKETZONE":"1","ROUTEUSSP":"6"},"geometry":{"type":"Point","coordinates":[145.02382699999998,-37.855996000000005]}},{"type":"Feature","properties":{"STOP_ID":"16770","STOP_NAME":"41-Kooyong Rd/High St (Armadale)","LATITUDE":-37.855585,"LONGITUDE":145.020804,"TICKETZONE":"1","ROUTEUSSP":"6"},"geometry":{"type":"Point","coordinates":[145.020804,-37.85558499999996]}},{"type":"Feature","properties":{"STOP_ID":"16771","STOP_NAME":"40-Armadale Station/High St (Armadale)","LATITUDE":-37.855274,"LONGITUDE":145.018402,"TICKETZONE":"1","ROUTEUSSP":"6"},"geometry":{"type":"Point","coordinates":[145.01840200000004,-37.85527399999995]}},{"type":"Feature","properties":{"STOP_ID":"16772","STOP_NAME":"39-Auburn Gr/High St (Armadale)","LATITUDE":-37.854872,"LONGITUDE":145.015356,"TICKETZONE":"1","ROUTEUSSP":"6"},"geometry":{"type":"Point","coordinates":[145.015356,-37.854872]}},{"type":"Feature","properties":{"STOP_ID":"16773","STOP_NAME":"38-Orrong Rd/High St (Armadale)","LATITUDE":-37.854386,"LONGITUDE":145.011709,"TICKETZONE":"1","ROUTEUSSP":"6"},"geometry":{"type":"Point","coordinates":[145.011709,-37.85438599999998]}},{"type":"Feature","properties":{"STOP_ID":"16774","STOP_NAME":"37-Airlie Ave/High St (Prahran)","LATITUDE":-37.853993,"LONGITUDE":145.008685,"TICKETZONE":"1","ROUTEUSSP":"6"},"geometry":{"type":"Point","coordinates":[145.008685,-37.853993]}},{"type":"Feature","properties":{"STOP_ID":"16775","STOP_NAME":"36-Chatsworth Rd/High St (Prahran)","LATITUDE":-37.853764,"LONGITUDE":145.006873,"TICKETZONE":"1","ROUTEUSSP":"6"},"geometry":{"type":"Point","coordinates":[145.00687300000004,-37.853763999999956]}},{"type":"Feature","properties":{"STOP_ID":"16776","STOP_NAME":"35-Williams Rd/High St (Prahran)","LATITUDE":-37.853169,"LONGITUDE":145.002615,"TICKETZONE":"1","ROUTEUSSP":"6"},"geometry":{"type":"Point","coordinates":[145.002615,-37.85316899999998]}},{"type":"Feature","properties":{"STOP_ID":"16777","STOP_NAME":"34-Lewisham Rd/High St (Prahran)","LATITUDE":-37.852829,"LONGITUDE":145.000113,"TICKETZONE":"1","ROUTEUSSP":"6"},"geometry":{"type":"Point","coordinates":[145.00011300000006,-37.852828999999986]}},{"type":"Feature","properties":{"STOP_ID":"16778","STOP_NAME":"33-The Avenue/High St (Prahran)","LATITUDE":-37.852623,"LONGITUDE":144.998607,"TICKETZONE":"1","ROUTEUSSP":"6"},"geometry":{"type":"Point","coordinates":[144.998607,-37.852622999999994]}},{"type":"Feature","properties":{"STOP_ID":"1696","STOP_NAME":"51-Nott St/Wattletree Rd (Malvern East)","LATITUDE":-37.864613,"LONGITUDE":145.046571,"TICKETZONE":"1","ROUTEUSSP":"5"},"geometry":{"type":"Point","coordinates":[145.04657100000009,-37.86461299999996]}},{"type":"Feature","properties":{"STOP_ID":"17306","STOP_NAME":"40-North Coburg Terminus/Sydney Rd (Coburg North)","LATITUDE":-37.72758,"LONGITUDE":144.96365,"TICKETZONE":"1","ROUTEUSSP":"19"},"geometry":{"type":"Point","coordinates":[144.96365000000003,-37.72757999999999]}},{"type":"Feature","properties":{"STOP_ID":"17307","STOP_NAME":"39-Mercy College/Sydney Rd (Coburg North)","LATITUDE":-37.729891,"LONGITUDE":144.963859,"TICKETZONE":"1","ROUTEUSSP":"19"},"geometry":{"type":"Point","coordinates":[144.96385900000007,-37.72989099999995]}},{"type":"Feature","properties":{"STOP_ID":"17308","STOP_NAME":"38-Carr St/Sydney Rd (Coburg North)","LATITUDE":-37.732112,"LONGITUDE":144.964627,"TICKETZONE":"1","ROUTEUSSP":"19"},"geometry":{"type":"Point","coordinates":[144.96462700000006,-37.73211199999997]}},{"type":"Feature","properties":{"STOP_ID":"17309","STOP_NAME":"37-Gaffney St/Sydney Rd (Coburg North)","LATITUDE":-37.733856,"LONGITUDE":144.965407,"TICKETZONE":"1","ROUTEUSSP":"19"},"geometry":{"type":"Point","coordinates":[144.96540700000003,-37.733856]}},{"type":"Feature","properties":{"STOP_ID":"17310","STOP_NAME":"36-Rogers St/Sydney Rd (Coburg)","LATITUDE":-37.735534,"LONGITUDE":144.966076,"TICKETZONE":"1","ROUTEUSSP":"19"},"geometry":{"type":"Point","coordinates":[144.96607600000004,-37.73553399999997]}},{"type":"Feature","properties":{"STOP_ID":"17311","STOP_NAME":"35-St Pauls Catholic Church/Sydney Rd (Coburg)","LATITUDE":-37.737505,"LONGITUDE":144.96693,"TICKETZONE":"1","ROUTEUSSP":"19"},"geometry":{"type":"Point","coordinates":[144.96693000000005,-37.737505]}},{"type":"Feature","properties":{"STOP_ID":"17312","STOP_NAME":"34-Bell St/Sydney Rd (Coburg)","LATITUDE":-37.741159,"LONGITUDE":144.96666,"TICKETZONE":"1","ROUTEUSSP":"19"},"geometry":{"type":"Point","coordinates":[144.96666000000005,-37.74115899999998]}},{"type":"Feature","properties":{"STOP_ID":"17313","STOP_NAME":"33-Coburg Market/Sydney Rd (Coburg)","LATITUDE":-37.743136,"LONGITUDE":144.966356,"TICKETZONE":"1","ROUTEUSSP":"19"},"geometry":{"type":"Point","coordinates":[144.96635600000002,-37.74313599999999]}},{"type":"Feature","properties":{"STOP_ID":"17314","STOP_NAME":"32-Harding St/Sydney Rd (Coburg)","LATITUDE":-37.744888,"LONGITUDE":144.966058,"TICKETZONE":"1","ROUTEUSSP":"19"},"geometry":{"type":"Point","coordinates":[144.9660580000001,-37.744888]}},{"type":"Feature","properties":{"STOP_ID":"17315","STOP_NAME":"31-Edward St/Sydney Rd (Coburg)","LATITUDE":-37.748474,"LONGITUDE":144.96545,"TICKETZONE":"1","ROUTEUSSP":"19"},"geometry":{"type":"Point","coordinates":[144.96545000000003,-37.74847399999999]}},{"type":"Feature","properties":{"STOP_ID":"17316","STOP_NAME":"30-The Avenue/Sydney Rd (Coburg)","LATITUDE":-37.751861,"LONGITUDE":144.964846,"TICKETZONE":"1","ROUTEUSSP":"19"},"geometry":{"type":"Point","coordinates":[144.96484600000008,-37.75186099999996]}},{"type":"Feature","properties":{"STOP_ID":"17317","STOP_NAME":"29-Moore St/Sydney Rd (Coburg)","LATITUDE":-37.753505,"LONGITUDE":144.964551,"TICKETZONE":"1","ROUTEUSSP":"19"},"geometry":{"type":"Point","coordinates":[144.96455100000003,-37.75350499999996]}},{"type":"Feature","properties":{"STOP_ID":"17318","STOP_NAME":"28-Moreland Rd/Sydney Rd (Coburg)","LATITUDE":-37.755311,"LONGITUDE":144.964252,"TICKETZONE":"1","ROUTEUSSP":"19"},"geometry":{"type":"Point","coordinates":[144.964252,-37.75531099999995]}},{"type":"Feature","properties":{"STOP_ID":"17319","STOP_NAME":"27-Brunswick Tram Depot/Sydney Rd (Brunswick)","LATITUDE":-37.757422,"LONGITUDE":144.963876,"TICKETZONE":"1","ROUTEUSSP":"19"},"geometry":{"type":"Point","coordinates":[144.96387600000003,-37.75742199999996]}},{"type":"Feature","properties":{"STOP_ID":"17320","STOP_NAME":"26-Albion St/Sydney Rd (Brunswick)","LATITUDE":-37.760738,"LONGITUDE":144.963309,"TICKETZONE":"1","ROUTEUSSP":"19"},"geometry":{"type":"Point","coordinates":[144.96330899999998,-37.760738]}},{"type":"Feature","properties":{"STOP_ID":"17321","STOP_NAME":"25-Stewart St/Sydney Rd (Brunswick)","LATITUDE":-37.763083,"LONGITUDE":144.962904,"TICKETZONE":"1","ROUTEUSSP":"19"},"geometry":{"type":"Point","coordinates":[144.96290399999998,-37.763082999999995]}},{"type":"Feature","properties":{"STOP_ID":"17322","STOP_NAME":"24-Blyth St/Sydney Rd (Brunswick)","LATITUDE":-37.765356,"LONGITUDE":144.962512,"TICKETZONE":"1","ROUTEUSSP":"19"},"geometry":{"type":"Point","coordinates":[144.96251200000006,-37.765356]}},{"type":"Feature","properties":{"STOP_ID":"17323","STOP_NAME":"23-Victoria St/Sydney Rd (Brunswick)","LATITUDE":-37.766982,"LONGITUDE":144.962229,"TICKETZONE":"1","ROUTEUSSP":"19"},"geometry":{"type":"Point","coordinates":[144.96222899999998,-37.766981999999985]}},{"type":"Feature","properties":{"STOP_ID":"17324","STOP_NAME":"22-Albert St/Sydney Rd (Brunswick)","LATITUDE":-37.768761,"LONGITUDE":144.961919,"TICKETZONE":"1","ROUTEUSSP":"19"},"geometry":{"type":"Point","coordinates":[144.96191900000008,-37.768760999999984]}},{"type":"Feature","properties":{"STOP_ID":"17325","STOP_NAME":"21-Glenlyon Rd/Sydney Rd (Brunswick)","LATITUDE":-37.771367,"LONGITUDE":144.961473,"TICKETZONE":"1","ROUTEUSSP":"19"},"geometry":{"type":"Point","coordinates":[144.96147300000007,-37.771367]}},{"type":"Feature","properties":{"STOP_ID":"17327","STOP_NAME":"19-Brunswick Rd/Sydney Rd (Brunswick)","LATITUDE":-37.777585,"LONGITUDE":144.960417,"TICKETZONE":"1","ROUTEUSSP":"19"},"geometry":{"type":"Point","coordinates":[144.960417,-37.77758499999999]}},{"type":"Feature","properties":{"STOP_ID":"17328","STOP_NAME":"18-Princes Park/Royal Pde (Parkville)","LATITUDE":-37.779383,"LONGITUDE":144.960152,"TICKETZONE":"1","ROUTEUSSP":"19"},"geometry":{"type":"Point","coordinates":[144.960152,-37.779382999999996]}},{"type":"Feature","properties":{"STOP_ID":"17329","STOP_NAME":"17-Ievers St/Royal Pde (Parkville)","LATITUDE":-37.781684,"LONGITUDE":144.959838,"TICKETZONE":"1","ROUTEUSSP":"19"},"geometry":{"type":"Point","coordinates":[144.959838,-37.781683999999984]}},{"type":"Feature","properties":{"STOP_ID":"17330","STOP_NAME":"16-Walker St/Royal Pde (Parkville)","LATITUDE":-37.784589,"LONGITUDE":144.959509,"TICKETZONE":"1","ROUTEUSSP":"19"},"geometry":{"type":"Point","coordinates":[144.95950900000003,-37.78458899999998]}},{"type":"Feature","properties":{"STOP_ID":"17331","STOP_NAME":"15-Leonard St/Royal Pde (Parkville)","LATITUDE":-37.787674,"LONGITUDE":144.959129,"TICKETZONE":"1","ROUTEUSSP":"19"},"geometry":{"type":"Point","coordinates":[144.95912900000008,-37.78767399999998]}},{"type":"Feature","properties":{"STOP_ID":"17332","STOP_NAME":"14-Cemetery Road West/Royal Pde (Parkville)","LATITUDE":-37.789715,"LONGITUDE":144.958879,"TICKETZONE":"1","ROUTEUSSP":"19"},"geometry":{"type":"Point","coordinates":[144.95887900000002,-37.789715]}},{"type":"Feature","properties":{"STOP_ID":"17333","STOP_NAME":"13-Gatehouse St/Royal Pde (Parkville)","LATITUDE":-37.792422,"LONGITUDE":144.958544,"TICKETZONE":"1","ROUTEUSSP":"19"},"geometry":{"type":"Point","coordinates":[144.95854400000007,-37.79242199999999]}},{"type":"Feature","properties":{"STOP_ID":"17334","STOP_NAME":"12-Morrah St/Royal Pde (Parkville)","LATITUDE":-37.79556,"LONGITUDE":144.958139,"TICKETZONE":"1","ROUTEUSSP":"19"},"geometry":{"type":"Point","coordinates":[144.95813900000007,-37.795559999999966]}},{"type":"Feature","properties":{"STOP_ID":"17335","STOP_NAME":"11-University of Melbourne/Royal Pde (Parkville)","LATITUDE":-37.798105,"LONGITUDE":144.957854,"TICKETZONE":"1","ROUTEUSSP":"19"},"geometry":{"type":"Point","coordinates":[144.957854,-37.798104999999964]}},{"type":"Feature","properties":{"STOP_ID":"17591","STOP_NAME":"7-Russell St/Bourke St (Melbourne City)","LATITUDE":-37.812778,"LONGITUDE":144.968343,"TICKETZONE":"1","ROUTEUSSP":"96,86"},"geometry":{"type":"Point","coordinates":[144.968343,-37.81277799999998]}},{"type":"Feature","properties":{"STOP_ID":"17593","STOP_NAME":"6-Swanston St/Bourke St (Melbourne City)","LATITUDE":-37.81352,"LONGITUDE":144.965926,"TICKETZONE":"1","ROUTEUSSP":"96,86"},"geometry":{"type":"Point","coordinates":[144.96592600000008,-37.81351999999998]}},{"type":"Feature","properties":{"STOP_ID":"17594","STOP_NAME":"5-Elizabeth St/Bourke St (Melbourne City)","LATITUDE":-37.814269,"LONGITUDE":144.963395,"TICKETZONE":"1","ROUTEUSSP":"96,86"},"geometry":{"type":"Point","coordinates":[144.963395,-37.81426899999997]}},{"type":"Feature","properties":{"STOP_ID":"17596","STOP_NAME":"4-Queen St/Bourke St (Melbourne City)","LATITUDE":-37.815253,"LONGITUDE":144.959835,"TICKETZONE":"1","ROUTEUSSP":"96,86"},"geometry":{"type":"Point","coordinates":[144.959835,-37.815252999999984]}},{"type":"Feature","properties":{"STOP_ID":"17597","STOP_NAME":"3-William St/Bourke St (Melbourne City)","LATITUDE":-37.815882,"LONGITUDE":144.957625,"TICKETZONE":"1","ROUTEUSSP":"96,86"},"geometry":{"type":"Point","coordinates":[144.957625,-37.81588199999999]}},{"type":"Feature","properties":{"STOP_ID":"17602","STOP_NAME":"32-Hornby St/High St (Prahran)","LATITUDE":-37.852354,"LONGITUDE":144.996534,"TICKETZONE":"1","ROUTEUSSP":"6"},"geometry":{"type":"Point","coordinates":[144.996534,-37.85235399999999]}},{"type":"Feature","properties":{"STOP_ID":"17603","STOP_NAME":"31-Chapel St/High St (Prahran)","LATITUDE":-37.851951,"LONGITUDE":144.993533,"TICKETZONE":"1","ROUTEUSSP":"6"},"geometry":{"type":"Point","coordinates":[144.99353300000007,-37.851950999999985]}},{"type":"Feature","properties":{"STOP_ID":"17604","STOP_NAME":"30-Prahran Station/High St (Windsor)","LATITUDE":-37.851392,"LONGITUDE":144.989298,"TICKETZONE":"1","ROUTEUSSP":"6"},"geometry":{"type":"Point","coordinates":[144.98929800000008,-37.851391999999976]}},{"type":"Feature","properties":{"STOP_ID":"17605","STOP_NAME":"29-Perth St/High St (Windsor)","LATITUDE":-37.851207,"LONGITUDE":144.987927,"TICKETZONE":"1","ROUTEUSSP":"6"},"geometry":{"type":"Point","coordinates":[144.987927,-37.85120699999999]}},{"type":"Feature","properties":{"STOP_ID":"17606","STOP_NAME":"28-Punt Rd/High St (Windsor)","LATITUDE":-37.850758,"LONGITUDE":144.984371,"TICKETZONE":"1","ROUTEUSSP":"6"},"geometry":{"type":"Point","coordinates":[144.984371,-37.850757999999985]}},{"type":"Feature","properties":{"STOP_ID":"1784","STOP_NAME":"37-Gaffney St/Sydney Rd (Coburg)","LATITUDE":-37.734097,"LONGITUDE":144.965321,"TICKETZONE":"1","ROUTEUSSP":"19"},"geometry":{"type":"Point","coordinates":[144.96532100000002,-37.73409699999996]}},{"type":"Feature","properties":{"STOP_ID":"17848","STOP_NAME":"1-Spencer St/Bourke St (Melbourne City)","LATITUDE":-37.817063,"LONGITUDE":144.953514,"TICKETZONE":"1","ROUTEUSSP":"96,86"},"geometry":{"type":"Point","coordinates":[144.95351400000004,-37.81706299999996]}},{"type":"Feature","properties":{"STOP_ID":"17849","STOP_NAME":"1-Spencer St/Bourke St (Melbourne City)","LATITUDE":-37.816709,"LONGITUDE":144.954387,"TICKETZONE":"1","ROUTEUSSP":"96,86"},"geometry":{"type":"Point","coordinates":[144.954387,-37.816709]}},{"type":"Feature","properties":{"STOP_ID":"17850","STOP_NAME":"1-Flinders Street Railway Station/Elizabeth St (Melbourne City)","LATITUDE":-37.818035,"LONGITUDE":144.964893,"TICKETZONE":"1","ROUTEUSSP":"57,59,19"},"geometry":{"type":"Point","coordinates":[144.96489300000007,-37.81803499999995]}},{"type":"Feature","properties":{"STOP_ID":"17851","STOP_NAME":"2-Collins St/Elizabeth St (Melbourne City)","LATITUDE":-37.815381,"LONGITUDE":144.963603,"TICKETZONE":"1","ROUTEUSSP":"57,59,19"},"geometry":{"type":"Point","coordinates":[144.96360300000003,-37.815381]}},{"type":"Feature","properties":{"STOP_ID":"17852","STOP_NAME":"3-Bourke Street Mall/Elizabeth St (Melbourne City)","LATITUDE":-37.813401,"LONGITUDE":144.962703,"TICKETZONE":"1","ROUTEUSSP":"57,59,19"},"geometry":{"type":"Point","coordinates":[144.96270300000003,-37.813401]}},{"type":"Feature","properties":{"STOP_ID":"17854","STOP_NAME":"5-Melbourne Central Station/Elizabeth St (Melbourne City)","LATITUDE":-37.810558,"LONGITUDE":144.961429,"TICKETZONE":"1","ROUTEUSSP":"57,59,19"},"geometry":{"type":"Point","coordinates":[144.96142900000007,-37.81055799999996]}},{"type":"Feature","properties":{"STOP_ID":"17856","STOP_NAME":"7-Queen Victoria Market/Elizabeth St (Melbourne City)","LATITUDE":-37.806652,"LONGITUDE":144.959628,"TICKETZONE":"1","ROUTEUSSP":"57,59,19"},"geometry":{"type":"Point","coordinates":[144.95962800000007,-37.806651999999985]}},{"type":"Feature","properties":{"STOP_ID":"17857","STOP_NAME":"8-Peel St/Victoria St (Melbourne City)","LATITUDE":-37.805981,"LONGITUDE":144.956251,"TICKETZONE":"1","ROUTEUSSP":"57"},"geometry":{"type":"Point","coordinates":[144.95625100000007,-37.805980999999974]}},{"type":"Feature","properties":{"STOP_ID":"17858","STOP_NAME":"9-William St/Victoria St (Melbourne City)","LATITUDE":-37.805688,"LONGITUDE":144.953908,"TICKETZONE":"1","ROUTEUSSP":"57"},"geometry":{"type":"Point","coordinates":[144.95390800000007,-37.805687999999975]}},{"type":"Feature","properties":{"STOP_ID":"17859","STOP_NAME":"10-Chetwynd St/Victoria St (Melbourne City)","LATITUDE":-37.805517,"LONGITUDE":144.952391,"TICKETZONE":"1","ROUTEUSSP":"57"},"geometry":{"type":"Point","coordinates":[144.95239100000003,-37.80551699999995]}},{"type":"Feature","properties":{"STOP_ID":"17860","STOP_NAME":"11-Errol St/Victoria St (Melbourne City)","LATITUDE":-37.805186,"LONGITUDE":144.949424,"TICKETZONE":"1","ROUTEUSSP":"57"},"geometry":{"type":"Point","coordinates":[144.94942400000002,-37.80518599999999]}},{"type":"Feature","properties":{"STOP_ID":"17861","STOP_NAME":"11-Victoria St/Errol St (North Melbourne)","LATITUDE":-37.804959,"LONGITUDE":144.949339,"TICKETZONE":"1","ROUTEUSSP":"59,57"},"geometry":{"type":"Point","coordinates":[144.949339,-37.804959]}},{"type":"Feature","properties":{"STOP_ID":"17862","STOP_NAME":"10-Chetwynd St/Victoria St (Melbourne City)","LATITUDE":-37.805403,"LONGITUDE":144.95203,"TICKETZONE":"1","ROUTEUSSP":"59,57"},"geometry":{"type":"Point","coordinates":[144.95203000000004,-37.805402999999956]}},{"type":"Feature","properties":{"STOP_ID":"17863","STOP_NAME":"9-Howard St/Victoria St (Melbourne City)","LATITUDE":-37.805564,"LONGITUDE":144.953502,"TICKETZONE":"1","ROUTEUSSP":"59,57"},"geometry":{"type":"Point","coordinates":[144.95350200000007,-37.805564000000004]}},{"type":"Feature","properties":{"STOP_ID":"17864","STOP_NAME":"8-Peel St/Victoria St (Melbourne City)","LATITUDE":-37.80581,"LONGITUDE":144.955744,"TICKETZONE":"1","ROUTEUSSP":"59,57"},"geometry":{"type":"Point","coordinates":[144.95574399999998,-37.80580999999995]}},{"type":"Feature","properties":{"STOP_ID":"17866","STOP_NAME":"9-Haymarket/Elizabeth St (Melbourne City)","LATITUDE":-37.801947,"LONGITUDE":144.957464,"TICKETZONE":"1","ROUTEUSSP":"59,19"},"geometry":{"type":"Point","coordinates":[144.95746400000007,-37.801946999999984]}},{"type":"Feature","properties":{"STOP_ID":"17867","STOP_NAME":"10-Royal Melbourne Hospital/Royal Pde (Melbourne City)","LATITUDE":-37.799901,"LONGITUDE":144.957441,"TICKETZONE":"1","ROUTEUSSP":"19"},"geometry":{"type":"Point","coordinates":[144.95744100000002,-37.79990099999998]}},{"type":"Feature","properties":{"STOP_ID":"17868","STOP_NAME":"10-Royal Melbourne Hospital/Royal Pde (Parkville)","LATITUDE":-37.79958,"LONGITUDE":144.957665,"TICKETZONE":"1","ROUTEUSSP":"19"},"geometry":{"type":"Point","coordinates":[144.95766500000002,-37.79957999999999]}},{"type":"Feature","properties":{"STOP_ID":"17869","STOP_NAME":"9-Haymarket/Elizabeth St (Melbourne City)","LATITUDE":-37.802132,"LONGITUDE":144.957743,"TICKETZONE":"1","ROUTEUSSP":"59,19"},"geometry":{"type":"Point","coordinates":[144.95774300000005,-37.80213199999997]}},{"type":"Feature","properties":{"STOP_ID":"17871","STOP_NAME":"7-Queen Victoria Market/Elizabeth St (Melbourne City)","LATITUDE":-37.806954,"LONGITUDE":144.959881,"TICKETZONE":"1","ROUTEUSSP":"57,59,19"},"geometry":{"type":"Point","coordinates":[144.959881,-37.80695399999996]}},{"type":"Feature","properties":{"STOP_ID":"17873","STOP_NAME":"5-Melbourne Central Station/Elizabeth St (Melbourne City)","LATITUDE":-37.811105,"LONGITUDE":144.961778,"TICKETZONE":"1","ROUTEUSSP":"57,59,19"},"geometry":{"type":"Point","coordinates":[144.96177799999998,-37.811105]}},{"type":"Feature","properties":{"STOP_ID":"17875","STOP_NAME":"3-Bourke Street Mall/Elizabeth St (Melbourne City)","LATITUDE":-37.814039,"LONGITUDE":144.963128,"TICKETZONE":"1","ROUTEUSSP":"57,59,19"},"geometry":{"type":"Point","coordinates":[144.96312799999998,-37.81403899999998]}},{"type":"Feature","properties":{"STOP_ID":"17876","STOP_NAME":"2-Collins St/Elizabeth St (Melbourne City)","LATITUDE":-37.81602,"LONGITUDE":144.964039,"TICKETZONE":"1","ROUTEUSSP":"57,59,19"},"geometry":{"type":"Point","coordinates":[144.96403900000007,-37.81601999999998]}},{"type":"Feature","properties":{"STOP_ID":"17877","STOP_NAME":"1-Flinders Street Railway Station/Elizabeth St (Melbourne City)","LATITUDE":-37.817899,"LONGITUDE":144.96484,"TICKETZONE":"1","ROUTEUSSP":"57,59,19"},"geometry":{"type":"Point","coordinates":[144.96483999999998,-37.817898999999954]}},{"type":"Feature","properties":{"STOP_ID":"17878","STOP_NAME":"12-Melbourne Museum/Nicholson St (Fitzroy)","LATITUDE":-37.805974,"LONGITUDE":144.973561,"TICKETZONE":"1","ROUTEUSSP":"96,86"},"geometry":{"type":"Point","coordinates":[144.97356100000002,-37.80597399999999]}},{"type":"Feature","properties":{"STOP_ID":"17879","STOP_NAME":"11-Victoria Pde/Nicholson St (Fitzroy)","LATITUDE":-37.80751,"LONGITUDE":144.973315,"TICKETZONE":"1","ROUTEUSSP":"96,86"},"geometry":{"type":"Point","coordinates":[144.97331500000007,-37.80750999999998]}},{"type":"Feature","properties":{"STOP_ID":"17880","STOP_NAME":"10-Albert St/Nicholson St (Fitzroy)","LATITUDE":-37.809577,"LONGITUDE":144.972963,"TICKETZONE":"1","ROUTEUSSP":"86,96,35"},"geometry":{"type":"Point","coordinates":[144.97296300000005,-37.80957699999999]}},{"type":"Feature","properties":{"STOP_ID":"17882","STOP_NAME":"9-Spring St/Bourke St (Melbourne City)","LATITUDE":-37.811544,"LONGITUDE":144.972579,"TICKETZONE":"1","ROUTEUSSP":"96,86"},"geometry":{"type":"Point","coordinates":[144.972579,-37.81154399999997]}},{"type":"Feature","properties":{"STOP_ID":"17885","STOP_NAME":"3-William St/Bourke St (Melbourne City)","LATITUDE":-37.815733,"LONGITUDE":144.95789,"TICKETZONE":"1","ROUTEUSSP":"96,86"},"geometry":{"type":"Point","coordinates":[144.95789000000002,-37.815732999999966]}},{"type":"Feature","properties":{"STOP_ID":"17886","STOP_NAME":"4-Queen St/Bourke St (Melbourne City)","LATITUDE":-37.815122,"LONGITUDE":144.960054,"TICKETZONE":"1","ROUTEUSSP":"96,86"},"geometry":{"type":"Point","coordinates":[144.960054,-37.815121999999974]}},{"type":"Feature","properties":{"STOP_ID":"17887","STOP_NAME":"5-Elizabeth St/Bourke St (Melbourne City)","LATITUDE":-37.814134,"LONGITUDE":144.963376,"TICKETZONE":"1","ROUTEUSSP":"96,86"},"geometry":{"type":"Point","coordinates":[144.96337600000004,-37.81413399999997]}},{"type":"Feature","properties":{"STOP_ID":"17888","STOP_NAME":"6-Swanston St/Bourke St (Melbourne City)","LATITUDE":-37.813402,"LONGITUDE":144.965895,"TICKETZONE":"1","ROUTEUSSP":"96,86"},"geometry":{"type":"Point","coordinates":[144.96589500000005,-37.813401999999996]}},{"type":"Feature","properties":{"STOP_ID":"17889","STOP_NAME":"7-Russell St/Bourke St (Melbourne City)","LATITUDE":-37.81245,"LONGITUDE":144.969215,"TICKETZONE":"1","ROUTEUSSP":"96,86"},"geometry":{"type":"Point","coordinates":[144.96921500000008,-37.812449999999956]}},{"type":"Feature","properties":{"STOP_ID":"1789","STOP_NAME":"50-Anderson St/Wattletree Rd (Malvern East)","LATITUDE":-37.864226,"LONGITUDE":145.043375,"TICKETZONE":"1","ROUTEUSSP":"5"},"geometry":{"type":"Point","coordinates":[145.04337500000008,-37.864225999999974]}},{"type":"Feature","properties":{"STOP_ID":"17891","STOP_NAME":"9-Spring St/Bourke St (Melbourne City)","LATITUDE":-37.811412,"LONGITUDE":144.972753,"TICKETZONE":"1","ROUTEUSSP":"96,86"},"geometry":{"type":"Point","coordinates":[144.972753,-37.81141199999996]}},{"type":"Feature","properties":{"STOP_ID":"17892","STOP_NAME":"10-Albert St/Nicholson St (East Melbourne)","LATITUDE":-37.809423,"LONGITUDE":144.972899,"TICKETZONE":"1","ROUTEUSSP":"86,96,35"},"geometry":{"type":"Point","coordinates":[144.97289899999998,-37.80942299999998]}},{"type":"Feature","properties":{"STOP_ID":"17893","STOP_NAME":"11-Victoria Pde/Nicholson St (East Melbourne)","LATITUDE":-37.808308,"LONGITUDE":144.973077,"TICKETZONE":"1","ROUTEUSSP":"86,96,35"},"geometry":{"type":"Point","coordinates":[144.973077,-37.808307999999954]}},{"type":"Feature","properties":{"STOP_ID":"17894","STOP_NAME":"12-Melbourne Museum/Nicholson St (Fitzroy)","LATITUDE":-37.805622,"LONGITUDE":144.973537,"TICKETZONE":"1","ROUTEUSSP":"96,86"},"geometry":{"type":"Point","coordinates":[144.97353700000008,-37.80562199999997]}},{"type":"Feature","properties":{"STOP_ID":"17895","STOP_NAME":"12-St Vincents Plaza/Victoria Pde (East Melbourne)","LATITUDE":-37.80828,"LONGITUDE":144.976133,"TICKETZONE":"1","ROUTEUSSP":"11,12,30,109"},"geometry":{"type":"Point","coordinates":[144.976133,-37.80827999999997]}},{"type":"Feature","properties":{"STOP_ID":"17896","STOP_NAME":"11-Albert St/Gisborne St (East Melbourne)","LATITUDE":-37.80939,"LONGITUDE":144.975728,"TICKETZONE":"1","ROUTEUSSP":"11,12,109"},"geometry":{"type":"Point","coordinates":[144.975728,-37.80938999999995]}},{"type":"Feature","properties":{"STOP_ID":"17897","STOP_NAME":"10-Parliament Railway Station/Macarthur St (East Melbourne)","LATITUDE":-37.81236,"LONGITUDE":144.974443,"TICKETZONE":"1","ROUTEUSSP":"11,12,109"},"geometry":{"type":"Point","coordinates":[144.97444300000006,-37.812359999999956]}},{"type":"Feature","properties":{"STOP_ID":"17898","STOP_NAME":"8-Spring St/Collins St (Melbourne City)","LATITUDE":-37.813558,"LONGITUDE":144.973365,"TICKETZONE":"1","ROUTEUSSP":"11,12,48,109"},"geometry":{"type":"Point","coordinates":[144.97336500000006,-37.813558]}},{"type":"Feature","properties":{"STOP_ID":"17901","STOP_NAME":"6-Melbourne Town Hall/Collins St (Melbourne City)","LATITUDE":-37.815695,"LONGITUDE":144.966127,"TICKETZONE":"1","ROUTEUSSP":"11,12,48,109"},"geometry":{"type":"Point","coordinates":[144.96612700000003,-37.815695000000005]}},{"type":"Feature","properties":{"STOP_ID":"17902","STOP_NAME":"5-Elizabeth St/Collins St (Melbourne City)","LATITUDE":-37.816341,"LONGITUDE":144.96386,"TICKETZONE":"1","ROUTEUSSP":"11,12,48,109"},"geometry":{"type":"Point","coordinates":[144.96386000000007,-37.816340999999966]}},{"type":"Feature","properties":{"STOP_ID":"17903","STOP_NAME":"3-William St/Collins St (Melbourne City)","LATITUDE":-37.817607,"LONGITUDE":144.959429,"TICKETZONE":"1","ROUTEUSSP":"11,12,48,109"},"geometry":{"type":"Point","coordinates":[144.959429,-37.81760699999995]}},{"type":"Feature","properties":{"STOP_ID":"17905","STOP_NAME":"1-Spencer St/Collins St (Melbourne City)","LATITUDE":-37.818882,"LONGITUDE":144.954998,"TICKETZONE":"1","ROUTEUSSP":"11,12,48,109"},"geometry":{"type":"Point","coordinates":[144.95499800000005,-37.818881999999974]}},{"type":"Feature","properties":{"STOP_ID":"17906","STOP_NAME":"1-Spencer St/Collins St (Melbourne City)","LATITUDE":-37.818773,"LONGITUDE":144.954955,"TICKETZONE":"1","ROUTEUSSP":"11,12,48,109"},"geometry":{"type":"Point","coordinates":[144.95495500000004,-37.818772999999965]}},{"type":"Feature","properties":{"STOP_ID":"17908","STOP_NAME":"3-William St/Collins St (Melbourne City)","LATITUDE":-37.817372,"LONGITUDE":144.959913,"TICKETZONE":"1","ROUTEUSSP":"11,12,48,109"},"geometry":{"type":"Point","coordinates":[144.95991300000003,-37.81737199999998]}},{"type":"Feature","properties":{"STOP_ID":"17910","STOP_NAME":"5-Elizabeth St/Collins St (Melbourne City)","LATITUDE":-37.816232,"LONGITUDE":144.963806,"TICKETZONE":"1","ROUTEUSSP":"11,12,48,109"},"geometry":{"type":"Point","coordinates":[144.9638060000001,-37.81623199999996]}},{"type":"Feature","properties":{"STOP_ID":"17911","STOP_NAME":"6-Melbourne Town Hall/Collins St (Melbourne City)","LATITUDE":-37.815559,"LONGITUDE":144.966063,"TICKETZONE":"1","ROUTEUSSP":"11,12,48,109"},"geometry":{"type":"Point","coordinates":[144.96606300000008,-37.81555899999995]}},{"type":"Feature","properties":{"STOP_ID":"17914","STOP_NAME":"8-Spring St/Collins St (Melbourne City)","LATITUDE":-37.813431,"LONGITUDE":144.973323,"TICKETZONE":"1","ROUTEUSSP":"11,12,48,109"},"geometry":{"type":"Point","coordinates":[144.97332300000005,-37.81343099999998]}},{"type":"Feature","properties":{"STOP_ID":"18516","STOP_NAME":"38-Ferguson St/Maribyrnong Rd (Ascot Vale)","LATITUDE":-37.771415,"LONGITUDE":144.912757,"TICKETZONE":"1","ROUTEUSSP":"82,57"},"geometry":{"type":"Point","coordinates":[144.91275700000006,-37.77141499999999]}},{"type":"Feature","properties":{"STOP_ID":"18517","STOP_NAME":"39-Bowen St/Maribyrnong Rd (Moonee Ponds)","LATITUDE":-37.771027,"LONGITUDE":144.90918,"TICKETZONE":"1","ROUTEUSSP":"82,57"},"geometry":{"type":"Point","coordinates":[144.90918,-37.771027000000004]}},{"type":"Feature","properties":{"STOP_ID":"18518","STOP_NAME":"40-Epsom Rd/Maribyrnong Rd (Ascot Vale)","LATITUDE":-37.770631,"LONGITUDE":144.905672,"TICKETZONE":"1","ROUTEUSSP":"82,57"},"geometry":{"type":"Point","coordinates":[144.90567199999998,-37.77063099999998]}},{"type":"Feature","properties":{"STOP_ID":"18519","STOP_NAME":"37-Maribyrnong Rd/Union Rd (Ascot Vale)","LATITUDE":-37.771951,"LONGITUDE":144.916057,"TICKETZONE":"1","ROUTEUSSP":"57"},"geometry":{"type":"Point","coordinates":[144.91605700000002,-37.771951]}},{"type":"Feature","properties":{"STOP_ID":"18520","STOP_NAME":"36-St Leonards Rd/Union Rd (Ascot Vale)","LATITUDE":-37.773703,"LONGITUDE":144.91578,"TICKETZONE":"1","ROUTEUSSP":"57"},"geometry":{"type":"Point","coordinates":[144.91578000000004,-37.773702999999955]}},{"type":"Feature","properties":{"STOP_ID":"18521","STOP_NAME":"35-Munro St/Union Rd (Ascot Vale)","LATITUDE":-37.776103,"LONGITUDE":144.915395,"TICKETZONE":"1","ROUTEUSSP":"57"},"geometry":{"type":"Point","coordinates":[144.915395,-37.77610299999998]}},{"type":"Feature","properties":{"STOP_ID":"18522","STOP_NAME":"34-Burrowes St/Union Rd (Ascot Vale)","LATITUDE":-37.778628,"LONGITUDE":144.914983,"TICKETZONE":"1","ROUTEUSSP":"57"},"geometry":{"type":"Point","coordinates":[144.914983,-37.77862799999997]}},{"type":"Feature","properties":{"STOP_ID":"18524","STOP_NAME":"32-Sandown Rd/Epsom Rd (Ascot Vale)","LATITUDE":-37.782668,"LONGITUDE":144.916675,"TICKETZONE":"1","ROUTEUSSP":"57"},"geometry":{"type":"Point","coordinates":[144.91667500000005,-37.782668]}},{"type":"Feature","properties":{"STOP_ID":"18525","STOP_NAME":"31-Racing Victoria/400 Epsom Rd (Flemington)","LATITUDE":-37.78439,"LONGITUDE":144.918251,"TICKETZONE":"1","ROUTEUSSP":"57"},"geometry":{"type":"Point","coordinates":[144.91825100000005,-37.78438999999997]}},{"type":"Feature","properties":{"STOP_ID":"18526","STOP_NAME":"30-Flemington Racecourse/Epsom Rd (Flemington)","LATITUDE":-37.785416,"LONGITUDE":144.919221,"TICKETZONE":"1","ROUTEUSSP":"57"},"geometry":{"type":"Point","coordinates":[144.919221,-37.785416]}},{"type":"Feature","properties":{"STOP_ID":"18527","STOP_NAME":"29-Flemington Racecourse/Racecourse Rd (Flemington)","LATITUDE":-37.787464,"LONGITUDE":144.921855,"TICKETZONE":"1","ROUTEUSSP":"57"},"geometry":{"type":"Point","coordinates":[144.92185500000005,-37.787464]}},{"type":"Feature","properties":{"STOP_ID":"18528","STOP_NAME":"28-Smithfield Rd/Racecourse Rd (Flemington)","LATITUDE":-37.787741,"LONGITUDE":144.925345,"TICKETZONE":"1","ROUTEUSSP":"57"},"geometry":{"type":"Point","coordinates":[144.925345,-37.78774099999998]}},{"type":"Feature","properties":{"STOP_ID":"18529","STOP_NAME":"26-Newmarket Plaza/Racecourse Rd (Kensington)","LATITUDE":-37.788074,"LONGITUDE":144.92839,"TICKETZONE":"1","ROUTEUSSP":"57"},"geometry":{"type":"Point","coordinates":[144.92839000000004,-37.788073999999995]}},{"type":"Feature","properties":{"STOP_ID":"18530","STOP_NAME":"25-Wellington St/Racecourse Rd (Flemington)","LATITUDE":-37.788499,"LONGITUDE":144.931512,"TICKETZONE":"1","ROUTEUSSP":"57"},"geometry":{"type":"Point","coordinates":[144.931512,-37.788499]}},{"type":"Feature","properties":{"STOP_ID":"18531","STOP_NAME":"24-Collett St/Racecourse Rd (Kensington)","LATITUDE":-37.788507,"LONGITUDE":144.933522,"TICKETZONE":"1","ROUTEUSSP":"57"},"geometry":{"type":"Point","coordinates":[144.93352200000004,-37.78850699999998]}},{"type":"Feature","properties":{"STOP_ID":"18532","STOP_NAME":"23-Stubbs St/Racecourse Rd (Flemington)","LATITUDE":-37.788797,"LONGITUDE":144.936194,"TICKETZONE":"1","ROUTEUSSP":"57"},"geometry":{"type":"Point","coordinates":[144.936194,-37.78879699999999]}},{"type":"Feature","properties":{"STOP_ID":"18533","STOP_NAME":"22-Boundary Rd/Racecourse Rd (North Melbourne)","LATITUDE":-37.789209,"LONGITUDE":144.940145,"TICKETZONE":"1","ROUTEUSSP":"57"},"geometry":{"type":"Point","coordinates":[144.94014500000003,-37.78920899999997]}},{"type":"Feature","properties":{"STOP_ID":"18536","STOP_NAME":"19-Abbotsford St Interchange/Abbotsford St (North Melbourne)","LATITUDE":-37.793729,"LONGITUDE":144.947163,"TICKETZONE":"1","ROUTEUSSP":"57"},"geometry":{"type":"Point","coordinates":[144.94716300000005,-37.793728999999985]}},{"type":"Feature","properties":{"STOP_ID":"18537","STOP_NAME":"18-Erskine St/Abbotsford St (North Melbourne)","LATITUDE":-37.795246,"LONGITUDE":144.946803,"TICKETZONE":"1","ROUTEUSSP":"57"},"geometry":{"type":"Point","coordinates":[144.94680300000005,-37.79524599999996]}},{"type":"Feature","properties":{"STOP_ID":"18538","STOP_NAME":"17-Canning St/Abbotsford St (North Melbourne)","LATITUDE":-37.796719,"LONGITUDE":144.946535,"TICKETZONE":"1","ROUTEUSSP":"57"},"geometry":{"type":"Point","coordinates":[144.94653500000004,-37.796718999999996]}},{"type":"Feature","properties":{"STOP_ID":"18539","STOP_NAME":"16-Haines St/Abbotsford St (North Melbourne)","LATITUDE":-37.798606,"LONGITUDE":144.946199,"TICKETZONE":"1","ROUTEUSSP":"57"},"geometry":{"type":"Point","coordinates":[144.94619899999998,-37.79860599999995]}},{"type":"Feature","properties":{"STOP_ID":"18540","STOP_NAME":"15-Arden St/Abbotsford St (North Melbourne)","LATITUDE":-37.800672,"LONGITUDE":144.945835,"TICKETZONE":"1","ROUTEUSSP":"57"},"geometry":{"type":"Point","coordinates":[144.945835,-37.80067199999996]}},{"type":"Feature","properties":{"STOP_ID":"18541","STOP_NAME":"14-Abbotsford St/Queensberry St (North Melbourne)","LATITUDE":-37.802663,"LONGITUDE":144.945802,"TICKETZONE":"1","ROUTEUSSP":"57"},"geometry":{"type":"Point","coordinates":[144.94580200000007,-37.802662999999995]}},{"type":"Feature","properties":{"STOP_ID":"18543","STOP_NAME":"23-Royal Park/Royal Park (Parkville)","LATITUDE":-37.791404,"LONGITUDE":144.949249,"TICKETZONE":"1","ROUTEUSSP":"58"},"geometry":{"type":"Point","coordinates":[144.949249,-37.791404]}},{"type":"Feature","properties":{"STOP_ID":"18544","STOP_NAME":"24-Elliott Ave/Royal Park (Parkville)","LATITUDE":-37.787986,"LONGITUDE":144.949627,"TICKETZONE":"1","ROUTEUSSP":"58"},"geometry":{"type":"Point","coordinates":[144.94962700000008,-37.78798599999999]}},{"type":"Feature","properties":{"STOP_ID":"18545","STOP_NAME":"25-State Netball Hockey Centre/Royal Park (Parkville)","LATITUDE":-37.784327,"LONGITUDE":144.948559,"TICKETZONE":"1","ROUTEUSSP":"58"},"geometry":{"type":"Point","coordinates":[144.94855900000005,-37.78432699999996]}},{"type":"Feature","properties":{"STOP_ID":"18546","STOP_NAME":"26-Melbourne Zoo/Royal Park (Parkville)","LATITUDE":-37.782402,"LONGITUDE":144.949293,"TICKETZONE":"1","ROUTEUSSP":"58"},"geometry":{"type":"Point","coordinates":[144.949293,-37.78240199999999]}},{"type":"Feature","properties":{"STOP_ID":"18547","STOP_NAME":"27-Royal Park Station/Royal Park (Parkville)","LATITUDE":-37.780688,"LONGITUDE":144.951237,"TICKETZONE":"1","ROUTEUSSP":"58"},"geometry":{"type":"Point","coordinates":[144.951237,-37.780688]}},{"type":"Feature","properties":{"STOP_ID":"18548","STOP_NAME":"28-Park St/Royal Park (Parkville)","LATITUDE":-37.776837,"LONGITUDE":144.949526,"TICKETZONE":"1","ROUTEUSSP":"58"},"geometry":{"type":"Point","coordinates":[144.949526,-37.776837]}},{"type":"Feature","properties":{"STOP_ID":"18549","STOP_NAME":"29-Brunswick Rd/Royal Park (Parkville)","LATITUDE":-37.775814,"LONGITUDE":144.948748,"TICKETZONE":"1","ROUTEUSSP":"58"},"geometry":{"type":"Point","coordinates":[144.94874800000002,-37.77581399999997]}},{"type":"Feature","properties":{"STOP_ID":"18550","STOP_NAME":"30-Union Square Shopping Centre/Grantham St (Brunswick West)","LATITUDE":-37.772562,"LONGITUDE":144.949315,"TICKETZONE":"1","ROUTEUSSP":"58"},"geometry":{"type":"Point","coordinates":[144.94931500000007,-37.77256199999999]}},{"type":"Feature","properties":{"STOP_ID":"18551","STOP_NAME":"31-Dawson St/Grantham St (Brunswick West)","LATITUDE":-37.770298,"LONGITUDE":144.949741,"TICKETZONE":"1","ROUTEUSSP":"58"},"geometry":{"type":"Point","coordinates":[144.94974100000002,-37.77029799999997]}},{"type":"Feature","properties":{"STOP_ID":"18552","STOP_NAME":"32-Foden St/Dawson St (Brunswick)","LATITUDE":-37.769923,"LONGITUDE":144.947356,"TICKETZONE":"1","ROUTEUSSP":"58"},"geometry":{"type":"Point","coordinates":[144.947356,-37.769923000000006]}},{"type":"Feature","properties":{"STOP_ID":"18553","STOP_NAME":"33-Daly St/Dawson St (Brunswick)","LATITUDE":-37.769593,"LONGITUDE":144.944425,"TICKETZONE":"1","ROUTEUSSP":"58"},"geometry":{"type":"Point","coordinates":[144.94442500000002,-37.769592999999986]}},{"type":"Feature","properties":{"STOP_ID":"18554","STOP_NAME":"34-Smith St/Melville Rd (Brunswick West)","LATITUDE":-37.767614,"LONGITUDE":144.943095,"TICKETZONE":"1","ROUTEUSSP":"58"},"geometry":{"type":"Point","coordinates":[144.94309500000008,-37.76761399999998]}},{"type":"Feature","properties":{"STOP_ID":"18555","STOP_NAME":"35-Victoria St/Melville Rd (Brunswick West)","LATITUDE":-37.764912,"LONGITUDE":144.94368,"TICKETZONE":"1","ROUTEUSSP":"58"},"geometry":{"type":"Point","coordinates":[144.94368000000009,-37.76491199999998]}},{"type":"Feature","properties":{"STOP_ID":"18556","STOP_NAME":"36-Hope St/Melville Rd (Brunswick West)","LATITUDE":-37.762162,"LONGITUDE":144.944154,"TICKETZONE":"1","ROUTEUSSP":"58"},"geometry":{"type":"Point","coordinates":[144.94415400000003,-37.76216199999999]}},{"type":"Feature","properties":{"STOP_ID":"18557","STOP_NAME":"37-Albion St/Melville Rd (Brunswick West)","LATITUDE":-37.75874,"LONGITUDE":144.944771,"TICKETZONE":"1","ROUTEUSSP":"58"},"geometry":{"type":"Point","coordinates":[144.94477100000006,-37.75873999999999]}},{"type":"Feature","properties":{"STOP_ID":"18558","STOP_NAME":"38-Jacobs Reserve/Melville Rd (Brunswick West)","LATITUDE":-37.756764,"LONGITUDE":144.945154,"TICKETZONE":"1","ROUTEUSSP":"58"},"geometry":{"type":"Point","coordinates":[144.945154,-37.756763999999976]}},{"type":"Feature","properties":{"STOP_ID":"18559","STOP_NAME":"39-McGregor Ave/Melville Rd (Brunswick West)","LATITUDE":-37.754779,"LONGITUDE":144.94555,"TICKETZONE":"1","ROUTEUSSP":"58"},"geometry":{"type":"Point","coordinates":[144.94555000000003,-37.754778999999985]}},{"type":"Feature","properties":{"STOP_ID":"18560","STOP_NAME":"40-Moreland Rd/Melville Rd (Brunswick West)","LATITUDE":-37.753429,"LONGITUDE":144.945655,"TICKETZONE":"1","ROUTEUSSP":"58"},"geometry":{"type":"Point","coordinates":[144.945655,-37.75342899999998]}},{"type":"Feature","properties":{"STOP_ID":"18561","STOP_NAME":"41-Woodlands Ave/Melville Rd (Pascoe Vale South)","LATITUDE":-37.749512,"LONGITUDE":144.946354,"TICKETZONE":"1","ROUTEUSSP":"58"},"geometry":{"type":"Point","coordinates":[144.94635400000004,-37.74951199999998]}},{"type":"Feature","properties":{"STOP_ID":"18562","STOP_NAME":"42-Reynard St/Melville Rd (Pascoe Vale South)","LATITUDE":-37.746611,"LONGITUDE":144.944334,"TICKETZONE":"1","ROUTEUSSP":"58"},"geometry":{"type":"Point","coordinates":[144.94433400000003,-37.74661099999997]}},{"type":"Feature","properties":{"STOP_ID":"18563","STOP_NAME":"43-Princes Tce/Melville Rd (Pascoe Vale South)","LATITUDE":-37.744122,"LONGITUDE":144.944767,"TICKETZONE":"1","ROUTEUSSP":"58"},"geometry":{"type":"Point","coordinates":[144.94476700000007,-37.744122000000004]}},{"type":"Feature","properties":{"STOP_ID":"18564","STOP_NAME":"44-Brearley Pde/Melville Rd (Pascoe Vale South)","LATITUDE":-37.741966,"LONGITUDE":144.945133,"TICKETZONE":"1","ROUTEUSSP":"58"},"geometry":{"type":"Point","coordinates":[144.94513300000006,-37.74196599999999]}},{"type":"Feature","properties":{"STOP_ID":"18566","STOP_NAME":"51-Balwyn Rd/Doncaster Rd (Balwyn North)","LATITUDE":-37.794656,"LONGITUDE":145.08454,"TICKETZONE":"1","ROUTEUSSP":"48"},"geometry":{"type":"Point","coordinates":[145.08454000000006,-37.794655999999975]}},{"type":"Feature","properties":{"STOP_ID":"18567","STOP_NAME":"50-Dight Ave/Doncaster Rd (Balwyn North)","LATITUDE":-37.794372,"LONGITUDE":145.080936,"TICKETZONE":"1","ROUTEUSSP":"48"},"geometry":{"type":"Point","coordinates":[145.08093600000007,-37.79437199999995]}},{"type":"Feature","properties":{"STOP_ID":"18568","STOP_NAME":"49-Buchanan Ave/Doncaster Rd (Balwyn North)","LATITUDE":-37.793941,"LONGITUDE":145.077722,"TICKETZONE":"1","ROUTEUSSP":"48"},"geometry":{"type":"Point","coordinates":[145.077722,-37.79394099999996]}},{"type":"Feature","properties":{"STOP_ID":"18569","STOP_NAME":"48-Osburn Ave/Doncaster Rd (Balwyn North)","LATITUDE":-37.793412,"LONGITUDE":145.074567,"TICKETZONE":"1","ROUTEUSSP":"48"},"geometry":{"type":"Point","coordinates":[145.074567,-37.79341199999999]}},{"type":"Feature","properties":{"STOP_ID":"18570","STOP_NAME":"47-North Balwyn Shopping Centre/Doncaster Rd (Balwyn North)","LATITUDE":-37.792711,"LONGITUDE":145.070861,"TICKETZONE":"1","ROUTEUSSP":"48"},"geometry":{"type":"Point","coordinates":[145.07086100000004,-37.792711]}},{"type":"Feature","properties":{"STOP_ID":"18571","STOP_NAME":"46-Wattle Ave/Doncaster Rd (Balwyn North)","LATITUDE":-37.793006,"LONGITUDE":145.067401,"TICKETZONE":"1","ROUTEUSSP":"48"},"geometry":{"type":"Point","coordinates":[145.06740100000002,-37.79300599999999]}},{"type":"Feature","properties":{"STOP_ID":"18573","STOP_NAME":"26-Ferrars St/Park St (South Melbourne)","LATITUDE":-37.836632,"LONGITUDE":144.956405,"TICKETZONE":"1","ROUTEUSSP":"1"},"geometry":{"type":"Point","coordinates":[144.95640500000002,-37.83663199999995]}},{"type":"Feature","properties":{"STOP_ID":"18574","STOP_NAME":"43-Kew High School/High St (Kew East)","LATITUDE":-37.7947,"LONGITUDE":145.061349,"TICKETZONE":"1","ROUTEUSSP":"48"},"geometry":{"type":"Point","coordinates":[145.06134900000006,-37.79469999999998]}},{"type":"Feature","properties":{"STOP_ID":"18575","STOP_NAME":"42-Woodlands Ave/High St (Kew East)","LATITUDE":-37.796324,"LONGITUDE":145.057672,"TICKETZONE":"1","ROUTEUSSP":"48"},"geometry":{"type":"Point","coordinates":[145.05767200000003,-37.79632399999997]}},{"type":"Feature","properties":{"STOP_ID":"18576","STOP_NAME":"41-Station St/High St (Kew East)","LATITUDE":-37.797966,"LONGITUDE":145.053927,"TICKETZONE":"1","ROUTEUSSP":"48"},"geometry":{"type":"Point","coordinates":[145.05392700000004,-37.797965999999974]}},{"type":"Feature","properties":{"STOP_ID":"18577","STOP_NAME":"40-Harp Village/High St (Kew East)","LATITUDE":-37.798721,"LONGITUDE":145.052192,"TICKETZONE":"1","ROUTEUSSP":"48"},"geometry":{"type":"Point","coordinates":[145.052192,-37.798721]}},{"type":"Feature","properties":{"STOP_ID":"18578","STOP_NAME":"39-Harp Rd/High St (Kew East)","LATITUDE":-37.799564,"LONGITUDE":145.050273,"TICKETZONE":"1","ROUTEUSSP":"48"},"geometry":{"type":"Point","coordinates":[145.05027300000006,-37.799563999999975]}},{"type":"Feature","properties":{"STOP_ID":"18579","STOP_NAME":"38-Victoria Park/High St (Kew East)","LATITUDE":-37.801316,"LONGITUDE":145.046172,"TICKETZONE":"1","ROUTEUSSP":"48"},"geometry":{"type":"Point","coordinates":[145.04617200000007,-37.801315999999986]}},{"type":"Feature","properties":{"STOP_ID":"18580","STOP_NAME":"37-Kew Cemetery/High St (Kew)","LATITUDE":-37.802582,"LONGITUDE":145.042652,"TICKETZONE":"1","ROUTEUSSP":"48"},"geometry":{"type":"Point","coordinates":[145.0426520000001,-37.80258199999997]}},{"type":"Feature","properties":{"STOP_ID":"18581","STOP_NAME":"36-Gladstone St/High St (Kew)","LATITUDE":-37.803521,"LONGITUDE":145.040026,"TICKETZONE":"1","ROUTEUSSP":"48"},"geometry":{"type":"Point","coordinates":[145.040026,-37.80352099999999]}},{"type":"Feature","properties":{"STOP_ID":"18582","STOP_NAME":"35-Charles St/High St (Kew)","LATITUDE":-37.804907,"LONGITUDE":145.036139,"TICKETZONE":"1","ROUTEUSSP":"48"},"geometry":{"type":"Point","coordinates":[145.03613900000005,-37.80490699999996]}},{"type":"Feature","properties":{"STOP_ID":"18583","STOP_NAME":"34-Union St/High St (Kew)","LATITUDE":-37.80564,"LONGITUDE":145.034166,"TICKETZONE":"1","ROUTEUSSP":"48"},"geometry":{"type":"Point","coordinates":[145.03416600000003,-37.80563999999998]}},{"type":"Feature","properties":{"STOP_ID":"18584","STOP_NAME":"33-Kew Shopping Centre/High St (Kew)","LATITUDE":-37.806674,"LONGITUDE":145.031311,"TICKETZONE":"1","ROUTEUSSP":"48"},"geometry":{"type":"Point","coordinates":[145.03131100000007,-37.80667399999999]}},{"type":"Feature","properties":{"STOP_ID":"18588","STOP_NAME":"25-Brook St/Church St (Hawthorn)","LATITUDE":-37.815756,"LONGITUDE":145.020982,"TICKETZONE":"1","ROUTEUSSP":"48"},"geometry":{"type":"Point","coordinates":[145.020982,-37.815755999999965]}},{"type":"Feature","properties":{"STOP_ID":"18589","STOP_NAME":"24-Hill St/Church St (Hawthorn)","LATITUDE":-37.817971,"LONGITUDE":145.018753,"TICKETZONE":"1","ROUTEUSSP":"48"},"geometry":{"type":"Point","coordinates":[145.01875300000006,-37.817971]}},{"type":"Feature","properties":{"STOP_ID":"18591","STOP_NAME":"65-Victoria St/Church St (Richmond)","LATITUDE":-37.810726,"LONGITUDE":145.000624,"TICKETZONE":"1","ROUTEUSSP":"78"},"geometry":{"type":"Point","coordinates":[145.00062400000002,-37.81072599999999]}},{"type":"Feature","properties":{"STOP_ID":"18592","STOP_NAME":"64-Elizabeth St/Church St (Richmond)","LATITUDE":-37.812602,"LONGITUDE":145.000199,"TICKETZONE":"1","ROUTEUSSP":"78"},"geometry":{"type":"Point","coordinates":[145.00019900000007,-37.81260199999997]}},{"type":"Feature","properties":{"STOP_ID":"18593","STOP_NAME":"63-Tweedie Pl/Church St (Richmond)","LATITUDE":-37.814318,"LONGITUDE":144.99988,"TICKETZONE":"1","ROUTEUSSP":"78"},"geometry":{"type":"Point","coordinates":[144.99988000000008,-37.81431799999996]}},{"type":"Feature","properties":{"STOP_ID":"18594","STOP_NAME":"62-Highett St/Church St (Richmond)","LATITUDE":-37.815962,"LONGITUDE":144.999574,"TICKETZONE":"1","ROUTEUSSP":"78"},"geometry":{"type":"Point","coordinates":[144.99957400000005,-37.815961999999956]}},{"type":"Feature","properties":{"STOP_ID":"18595","STOP_NAME":"61-Bridge Rd/Church St (Richmond)","LATITUDE":-37.818729,"LONGITUDE":144.999079,"TICKETZONE":"1","ROUTEUSSP":"78"},"geometry":{"type":"Point","coordinates":[144.99907900000005,-37.81872899999996]}},{"type":"Feature","properties":{"STOP_ID":"18596","STOP_NAME":"60-Abinger St/Church St (Richmond)","LATITUDE":-37.820302,"LONGITUDE":144.99881,"TICKETZONE":"1","ROUTEUSSP":"78"},"geometry":{"type":"Point","coordinates":[144.99881000000005,-37.82030199999997]}},{"type":"Feature","properties":{"STOP_ID":"18597","STOP_NAME":"59-St Ignatius Church/Church St (Richmond)","LATITUDE":-37.821838,"LONGITUDE":144.998541,"TICKETZONE":"1","ROUTEUSSP":"78"},"geometry":{"type":"Point","coordinates":[144.99854100000005,-37.82183799999996]}},{"type":"Feature","properties":{"STOP_ID":"18598","STOP_NAME":"58-Gipps St/Church St (Richmond)","LATITUDE":-37.824058,"LONGITUDE":144.998163,"TICKETZONE":"1","ROUTEUSSP":"78"},"geometry":{"type":"Point","coordinates":[144.9981630000001,-37.82405799999998]}},{"type":"Feature","properties":{"STOP_ID":"18599","STOP_NAME":"57-Swan St/Church St (Richmond)","LATITUDE":-37.825782,"LONGITUDE":144.997821,"TICKETZONE":"1","ROUTEUSSP":"78"},"geometry":{"type":"Point","coordinates":[144.99782100000004,-37.825782000000004]}},{"type":"Feature","properties":{"STOP_ID":"18601","STOP_NAME":"55-Adelaide St/Church St (Cremorne)","LATITUDE":-37.828972,"LONGITUDE":144.997269,"TICKETZONE":"1","ROUTEUSSP":"78"},"geometry":{"type":"Point","coordinates":[144.99726900000007,-37.828971999999965]}},{"type":"Feature","properties":{"STOP_ID":"18602","STOP_NAME":"54-Balmain St/Church St (Cremorne)","LATITUDE":-37.830481,"LONGITUDE":144.997001,"TICKETZONE":"1","ROUTEUSSP":"78"},"geometry":{"type":"Point","coordinates":[144.99700100000007,-37.83048099999996]}},{"type":"Feature","properties":{"STOP_ID":"18603","STOP_NAME":"53-Howard St/Church St (Richmond)","LATITUDE":-37.832764,"LONGITUDE":144.996632,"TICKETZONE":"1","ROUTEUSSP":"78"},"geometry":{"type":"Point","coordinates":[144.9966320000001,-37.832764]}},{"type":"Feature","properties":{"STOP_ID":"18605","STOP_NAME":"51-Malcolm St/Chapel St (South Yarra)","LATITUDE":-37.836379,"LONGITUDE":144.996171,"TICKETZONE":"1","ROUTEUSSP":"78"},"geometry":{"type":"Point","coordinates":[144.996171,-37.836378999999965]}},{"type":"Feature","properties":{"STOP_ID":"18606","STOP_NAME":"50-Toorak Rd/Chapel St (South Yarra)","LATITUDE":-37.839648,"LONGITUDE":144.995503,"TICKETZONE":"1","ROUTEUSSP":"78"},"geometry":{"type":"Point","coordinates":[144.99550299999999,-37.839647999999954]}},{"type":"Feature","properties":{"STOP_ID":"18607","STOP_NAME":"49-Arthur St/Chapel St (South Yarra)","LATITUDE":-37.841974,"LONGITUDE":144.995053,"TICKETZONE":"1","ROUTEUSSP":"78"},"geometry":{"type":"Point","coordinates":[144.99505299999998,-37.84197399999999]}},{"type":"Feature","properties":{"STOP_ID":"18608","STOP_NAME":"48-Cliff St/Chapel St (South Yarra)","LATITUDE":-37.843833,"LONGITUDE":144.994651,"TICKETZONE":"1","ROUTEUSSP":"78"},"geometry":{"type":"Point","coordinates":[144.9946510000001,-37.84383299999996]}},{"type":"Feature","properties":{"STOP_ID":"18609","STOP_NAME":"47-Commercial Rd/Chapel St (Prahran)","LATITUDE":-37.846976,"LONGITUDE":144.994032,"TICKETZONE":"1","ROUTEUSSP":"78"},"geometry":{"type":"Point","coordinates":[144.99403200000006,-37.846975999999984]}},{"type":"Feature","properties":{"STOP_ID":"18610","STOP_NAME":"46-Chatham St/Chapel St (Prahran)","LATITUDE":-37.84908,"LONGITUDE":144.993713,"TICKETZONE":"1","ROUTEUSSP":"78"},"geometry":{"type":"Point","coordinates":[144.99371300000007,-37.84907999999996]}},{"type":"Feature","properties":{"STOP_ID":"18611","STOP_NAME":"45-High St/Chapel St (Prahran)","LATITUDE":-37.851956,"LONGITUDE":144.993283,"TICKETZONE":"1","ROUTEUSSP":"78"},"geometry":{"type":"Point","coordinates":[144.99328300000002,-37.85195599999997]}},{"type":"Feature","properties":{"STOP_ID":"18612","STOP_NAME":"44-Duke St/Chapel St (Windsor)","LATITUDE":-37.854102,"LONGITUDE":144.992827,"TICKETZONE":"1","ROUTEUSSP":"78"},"geometry":{"type":"Point","coordinates":[144.99282700000003,-37.854101999999955]}},{"type":"Feature","properties":{"STOP_ID":"18613","STOP_NAME":"43-Windsor Railway Station/Chapel St (Windsor)","LATITUDE":-37.85624,"LONGITUDE":144.992451,"TICKETZONE":"1","ROUTEUSSP":"78"},"geometry":{"type":"Point","coordinates":[144.99245100000007,-37.85623999999996]}},{"type":"Feature","properties":{"STOP_ID":"18614","STOP_NAME":"42-Dandenong Rd/Chapel St (St Kilda East)","LATITUDE":-37.858048,"LONGITUDE":144.99222,"TICKETZONE":"1","ROUTEUSSP":"78"},"geometry":{"type":"Point","coordinates":[144.9922200000001,-37.858048]}},{"type":"Feature","properties":{"STOP_ID":"18615","STOP_NAME":"41-St Michaels Grammar School/Chapel St (St Kilda)","LATITUDE":-37.859529,"LONGITUDE":144.991873,"TICKETZONE":"1","ROUTEUSSP":"78"},"geometry":{"type":"Point","coordinates":[144.99187300000006,-37.85952899999995]}},{"type":"Feature","properties":{"STOP_ID":"18616","STOP_NAME":"40-Alma Rd/Chapel St (St Kilda East)","LATITUDE":-37.861577,"LONGITUDE":144.99151,"TICKETZONE":"1","ROUTEUSSP":"78"},"geometry":{"type":"Point","coordinates":[144.99151000000006,-37.861576999999954]}},{"type":"Feature","properties":{"STOP_ID":"18617","STOP_NAME":"39-Argyle St/Chapel St (St Kilda East)","LATITUDE":-37.863392,"LONGITUDE":144.991188,"TICKETZONE":"1","ROUTEUSSP":"78"},"geometry":{"type":"Point","coordinates":[144.99118800000008,-37.863391999999976]}},{"type":"Feature","properties":{"STOP_ID":"18618","STOP_NAME":"38-Inkerman St/Chapel St (St Kilda East)","LATITUDE":-37.865441,"LONGITUDE":144.990826,"TICKETZONE":"1","ROUTEUSSP":"78"},"geometry":{"type":"Point","coordinates":[144.99082600000008,-37.865440999999976]}},{"type":"Feature","properties":{"STOP_ID":"18619","STOP_NAME":"37-Chapel St/Carlisle St (Balaclava)","LATITUDE":-37.868445,"LONGITUDE":144.990494,"TICKETZONE":"1","ROUTEUSSP":"3/3a,16"},"geometry":{"type":"Point","coordinates":[144.990494,-37.86844499999995]}},{"type":"Feature","properties":{"STOP_ID":"18620","STOP_NAME":"36-St Kilda Town Hall/Carlisle St (Balaclava)","LATITUDE":-37.868226,"LONGITUDE":144.98876,"TICKETZONE":"1","ROUTEUSSP":"3/3a,16"},"geometry":{"type":"Point","coordinates":[144.98876000000007,-37.86822599999999]}},{"type":"Feature","properties":{"STOP_ID":"18621","STOP_NAME":"37-Carlisle St/Chapel St (St Kilda)","LATITUDE":-37.868486,"LONGITUDE":144.990265,"TICKETZONE":"1","ROUTEUSSP":"78"},"geometry":{"type":"Point","coordinates":[144.99026500000002,-37.86848599999996]}},{"type":"Feature","properties":{"STOP_ID":"18622","STOP_NAME":"36-Brighton Rd/Chapel St (St Kilda)","LATITUDE":-37.871091,"LONGITUDE":144.989774,"TICKETZONE":"1","ROUTEUSSP":"78"},"geometry":{"type":"Point","coordinates":[144.989774,-37.87109099999998]}},{"type":"Feature","properties":{"STOP_ID":"18623","STOP_NAME":"35-St Kilda Rd/Carlisle St (St Kilda)","LATITUDE":-37.867963,"LONGITUDE":144.986574,"TICKETZONE":"1","ROUTEUSSP":"3/3a,67,16"},"geometry":{"type":"Point","coordinates":[144.98657400000002,-37.867962999999975]}},{"type":"Feature","properties":{"STOP_ID":"18624","STOP_NAME":"34-Greeves St/Carlisle St (St Kilda)","LATITUDE":-37.867594,"LONGITUDE":144.983969,"TICKETZONE":"1","ROUTEUSSP":"3/3a,16"},"geometry":{"type":"Point","coordinates":[144.983969,-37.867594]}},{"type":"Feature","properties":{"STOP_ID":"18625","STOP_NAME":"33-Barkly St/Carlisle St (St Kilda)","LATITUDE":-37.867114,"LONGITUDE":144.981163,"TICKETZONE":"1","ROUTEUSSP":"3/3a,16"},"geometry":{"type":"Point","coordinates":[144.98116300000004,-37.86711399999996]}},{"type":"Feature","properties":{"STOP_ID":"18632","STOP_NAME":"38-Balaclava Station/Carlisle St (Balaclava)","LATITUDE":-37.868818,"LONGITUDE":144.993371,"TICKETZONE":"1","ROUTEUSSP":"3/3a,16"},"geometry":{"type":"Point","coordinates":[144.99337100000002,-37.868817999999976]}},{"type":"Feature","properties":{"STOP_ID":"18633","STOP_NAME":"39-Orange Gr/Carlisle St (Balaclava)","LATITUDE":-37.869245,"LONGITUDE":144.996736,"TICKETZONE":"1","ROUTEUSSP":"3/3a,16"},"geometry":{"type":"Point","coordinates":[144.99673600000006,-37.86924499999998]}},{"type":"Feature","properties":{"STOP_ID":"18634","STOP_NAME":"40-Hotham St/Carlisle St (Balaclava)","LATITUDE":-37.86961,"LONGITUDE":144.999625,"TICKETZONE":"1","ROUTEUSSP":"3/3a,16"},"geometry":{"type":"Point","coordinates":[144.99962500000004,-37.869609999999966]}},{"type":"Feature","properties":{"STOP_ID":"18635","STOP_NAME":"41-Empress Rd/Balaclava Rd (Caulfield North)","LATITUDE":-37.869984,"LONGITUDE":145.002582,"TICKETZONE":"1","ROUTEUSSP":"3/3a,16"},"geometry":{"type":"Point","coordinates":[145.00258200000007,-37.86998399999999]}},{"type":"Feature","properties":{"STOP_ID":"18636","STOP_NAME":"42-Sidwell Ave/Balaclava Rd (Caulfield North)","LATITUDE":-37.870342,"LONGITUDE":145.005585,"TICKETZONE":"1","ROUTEUSSP":"3/3a,16"},"geometry":{"type":"Point","coordinates":[145.005585,-37.870341999999994]}},{"type":"Feature","properties":{"STOP_ID":"18637","STOP_NAME":"43-Orrong Rd/Balaclava Rd (Caulfield North)","LATITUDE":-37.870748,"LONGITUDE":145.008791,"TICKETZONE":"1","ROUTEUSSP":"3/3a,16"},"geometry":{"type":"Point","coordinates":[145.0087910000001,-37.87074799999999]}},{"type":"Feature","properties":{"STOP_ID":"18638","STOP_NAME":"44-Ontario St/Balaclava Rd (Caulfield North)","LATITUDE":-37.871186,"LONGITUDE":145.01236,"TICKETZONE":"1","ROUTEUSSP":"3/3a,16"},"geometry":{"type":"Point","coordinates":[145.01236000000006,-37.871185999999966]}},{"type":"Feature","properties":{"STOP_ID":"18639","STOP_NAME":"45-Kent Gr/Balaclava Rd (Caulfield North)","LATITUDE":-37.871548,"LONGITUDE":145.015113,"TICKETZONE":"1","ROUTEUSSP":"3/3a,16"},"geometry":{"type":"Point","coordinates":[145.01511300000004,-37.87154799999996]}},{"type":"Feature","properties":{"STOP_ID":"18640","STOP_NAME":"46-Kooyong Rd/Balaclava Rd (Caulfield North)","LATITUDE":-37.871894,"LONGITUDE":145.017957,"TICKETZONE":"1","ROUTEUSSP":"3/3a,16"},"geometry":{"type":"Point","coordinates":[145.01795700000002,-37.871894]}},{"type":"Feature","properties":{"STOP_ID":"18641","STOP_NAME":"47-Elmhurst Rd/Balaclava Rd (Caulfield North)","LATITUDE":-37.872299,"LONGITUDE":145.021175,"TICKETZONE":"1","ROUTEUSSP":"3/3a,16"},"geometry":{"type":"Point","coordinates":[145.02117500000008,-37.872299]}},{"type":"Feature","properties":{"STOP_ID":"18645","STOP_NAME":"51-Hawthorn Rd/Balaclava Rd (Caulfield North)","LATITUDE":-37.87257,"LONGITUDE":145.02443,"TICKETZONE":"1","ROUTEUSSP":"3/3a,16"},"geometry":{"type":"Point","coordinates":[145.02443000000005,-37.872569999999996]}},{"type":"Feature","properties":{"STOP_ID":"18646","STOP_NAME":"52-Caulfield Park Bowling Club/Balaclava Rd (Caulfield North)","LATITUDE":-37.873108,"LONGITUDE":145.028543,"TICKETZONE":"1","ROUTEUSSP":"3/3a"},"geometry":{"type":"Point","coordinates":[145.028543,-37.873108]}},{"type":"Feature","properties":{"STOP_ID":"18647","STOP_NAME":"53-Caulfield Park/Balaclava Rd (Caulfield North)","LATITUDE":-37.873498,"LONGITUDE":145.031932,"TICKETZONE":"1","ROUTEUSSP":"3/3a"},"geometry":{"type":"Point","coordinates":[145.03193199999998,-37.873497999999984]}},{"type":"Feature","properties":{"STOP_ID":"18648","STOP_NAME":"54-Kambrook Rd/Balaclava Rd (Caulfield North)","LATITUDE":-37.873987,"LONGITUDE":145.035864,"TICKETZONE":"1","ROUTEUSSP":"3/3a"},"geometry":{"type":"Point","coordinates":[145.03586400000006,-37.873987]}},{"type":"Feature","properties":{"STOP_ID":"18649","STOP_NAME":"55-Normanby Rd/Balaclava Rd (Caulfield North)","LATITUDE":-37.874199,"LONGITUDE":145.037791,"TICKETZONE":"1","ROUTEUSSP":"3/3a"},"geometry":{"type":"Point","coordinates":[145.03779100000008,-37.874198999999976]}},{"type":"Feature","properties":{"STOP_ID":"18650","STOP_NAME":"56-Caulfield Racecourse/Normanby Rd (Caulfield North)","LATITUDE":-37.875488,"LONGITUDE":145.039416,"TICKETZONE":"1","ROUTEUSSP":"3/3a"},"geometry":{"type":"Point","coordinates":[145.03941600000007,-37.87548799999996]}},{"type":"Feature","properties":{"STOP_ID":"18651","STOP_NAME":"57-Caulfield Railway Station/Derby Rd (Caulfield East)","LATITUDE":-37.876418,"LONGITUDE":145.041654,"TICKETZONE":"1","ROUTEUSSP":"3/3a"},"geometry":{"type":"Point","coordinates":[145.041654,-37.876418]}},{"type":"Feature","properties":{"STOP_ID":"18652","STOP_NAME":"58-Dandenong Rd/Derby Rd (Caulfield North)","LATITUDE":-37.875709,"LONGITUDE":145.041866,"TICKETZONE":"1","ROUTEUSSP":"3/3a"},"geometry":{"type":"Point","coordinates":[145.04186600000003,-37.87570899999997]}},{"type":"Feature","properties":{"STOP_ID":"18653","STOP_NAME":"59-Dandenong Rd/Waverley Rd (Malvern East)","LATITUDE":-37.87576,"LONGITUDE":145.044946,"TICKETZONE":"1","ROUTEUSSP":"3/3a"},"geometry":{"type":"Point","coordinates":[145.04494599999998,-37.87575999999996]}},{"type":"Feature","properties":{"STOP_ID":"18654","STOP_NAME":"60-Burke Rd/Waverley Rd (Malvern East)","LATITUDE":-37.875893,"LONGITUDE":145.048046,"TICKETZONE":"1","ROUTEUSSP":"3/3a"},"geometry":{"type":"Point","coordinates":[145.048046,-37.87589299999996]}},{"type":"Feature","properties":{"STOP_ID":"18655","STOP_NAME":"61-Tennyson St/Waverley Rd (Malvern East)","LATITUDE":-37.876247,"LONGITUDE":145.050936,"TICKETZONE":"1","ROUTEUSSP":"3/3a"},"geometry":{"type":"Point","coordinates":[145.05093599999998,-37.87624699999998]}},{"type":"Feature","properties":{"STOP_ID":"18656","STOP_NAME":"62-The Avenue/Waverley Rd (Malvern East)","LATITUDE":-37.876697,"LONGITUDE":145.054687,"TICKETZONE":"1","ROUTEUSSP":"3/3a"},"geometry":{"type":"Point","coordinates":[145.05468700000006,-37.87669699999998]}},{"type":"Feature","properties":{"STOP_ID":"18657","STOP_NAME":"63-Oak Gr/Waverley Rd (Malvern East)","LATITUDE":-37.876917,"LONGITUDE":145.056546,"TICKETZONE":"1","ROUTEUSSP":"3/3a"},"geometry":{"type":"Point","coordinates":[145.05654600000003,-37.87691699999999]}},{"type":"Feature","properties":{"STOP_ID":"18658","STOP_NAME":"27-Park St/Montague St (South Melbourne)","LATITUDE":-37.837522,"LONGITUDE":144.954176,"TICKETZONE":"1","ROUTEUSSP":"1"},"geometry":{"type":"Point","coordinates":[144.95417600000007,-37.83752199999998]}},{"type":"Feature","properties":{"STOP_ID":"18659","STOP_NAME":"28-Montague St/Bridport St (Albert Park)","LATITUDE":-37.840732,"LONGITUDE":144.955315,"TICKETZONE":"1","ROUTEUSSP":"1"},"geometry":{"type":"Point","coordinates":[144.95531500000004,-37.840732]}},{"type":"Feature","properties":{"STOP_ID":"18660","STOP_NAME":"29-Bridport St/Victoria Ave (Albert Park)","LATITUDE":-37.841563,"LONGITUDE":144.953337,"TICKETZONE":"1","ROUTEUSSP":"1"},"geometry":{"type":"Point","coordinates":[144.95333700000003,-37.84156299999995]}},{"type":"Feature","properties":{"STOP_ID":"18661","STOP_NAME":"30-Richardson St/Victoria Ave (Albert Park)","LATITUDE":-37.843942,"LONGITUDE":144.951283,"TICKETZONE":"1","ROUTEUSSP":"1"},"geometry":{"type":"Point","coordinates":[144.951283,-37.84394199999997]}},{"type":"Feature","properties":{"STOP_ID":"18662","STOP_NAME":"31-Graham St/Victoria Ave (Albert Park)","LATITUDE":-37.845674,"LONGITUDE":144.949826,"TICKETZONE":"1","ROUTEUSSP":"1"},"geometry":{"type":"Point","coordinates":[144.94982600000003,-37.845673999999974]}},{"type":"Feature","properties":{"STOP_ID":"18663","STOP_NAME":"32-Beaconsfield Pde/Victoria Ave (Albert Park)","LATITUDE":-37.847204,"LONGITUDE":144.948658,"TICKETZONE":"1","ROUTEUSSP":"1"},"geometry":{"type":"Point","coordinates":[144.94865800000002,-37.84720399999998]}},{"type":"Feature","properties":{"STOP_ID":"18699","STOP_NAME":"124-Walsh St/Toorak Rd (South Yarra)","LATITUDE":-37.838152,"LONGITUDE":144.984453,"TICKETZONE":"1","ROUTEUSSP":"58"},"geometry":{"type":"Point","coordinates":[144.98445300000003,-37.83815199999998]}},{"type":"Feature","properties":{"STOP_ID":"18700","STOP_NAME":"125-Punt Rd/Toorak Rd (South Yarra)","LATITUDE":-37.838408,"LONGITUDE":144.986753,"TICKETZONE":"1","ROUTEUSSP":"58"},"geometry":{"type":"Point","coordinates":[144.98675300000002,-37.83840799999996]}},{"type":"Feature","properties":{"STOP_ID":"18702","STOP_NAME":"126-Myrtle St/Toorak Rd (South Yarra)","LATITUDE":-37.838788,"LONGITUDE":144.989504,"TICKETZONE":"1","ROUTEUSSP":"58"},"geometry":{"type":"Point","coordinates":[144.989504,-37.838787999999965]}},{"type":"Feature","properties":{"STOP_ID":"18703","STOP_NAME":"127-South Yarra Railway Station/Toorak Rd (South Yarra)","LATITUDE":-37.839131,"LONGITUDE":144.992165,"TICKETZONE":"1","ROUTEUSSP":"58"},"geometry":{"type":"Point","coordinates":[144.992165,-37.83913099999995]}},{"type":"Feature","properties":{"STOP_ID":"18704","STOP_NAME":"128-Chapel St/Toorak Rd (South Yarra)","LATITUDE":-37.839581,"LONGITUDE":144.995823,"TICKETZONE":"1","ROUTEUSSP":"58"},"geometry":{"type":"Point","coordinates":[144.9958230000001,-37.83958099999995]}},{"type":"Feature","properties":{"STOP_ID":"18705","STOP_NAME":"129-Tivoli Rd/Toorak Rd (South Yarra)","LATITUDE":-37.839927,"LONGITUDE":144.998666,"TICKETZONE":"1","ROUTEUSSP":"58"},"geometry":{"type":"Point","coordinates":[144.99866600000007,-37.83992699999999]}},{"type":"Feature","properties":{"STOP_ID":"18706","STOP_NAME":"130-Hawksburn Rd/Toorak Rd (South Yarra)","LATITUDE":-37.840368,"LONGITUDE":145.002336,"TICKETZONE":"1","ROUTEUSSP":"58"},"geometry":{"type":"Point","coordinates":[145.002336,-37.840367999999955]}},{"type":"Feature","properties":{"STOP_ID":"18707","STOP_NAME":"131-Williams Rd/Toorak Rd (Toorak)","LATITUDE":-37.840725,"LONGITUDE":145.00536,"TICKETZONE":"1","ROUTEUSSP":"58"},"geometry":{"type":"Point","coordinates":[145.00536,-37.84072499999996]}},{"type":"Feature","properties":{"STOP_ID":"18708","STOP_NAME":"132-Toorak Village/Toorak Rd (Toorak)","LATITUDE":-37.841093,"LONGITUDE":145.008452,"TICKETZONE":"1","ROUTEUSSP":"58"},"geometry":{"type":"Point","coordinates":[145.00845200000003,-37.841093]}},{"type":"Feature","properties":{"STOP_ID":"18709","STOP_NAME":"133-Canterbury Rd/Toorak Rd (Toorak)","LATITUDE":-37.841387,"LONGITUDE":145.010888,"TICKETZONE":"1","ROUTEUSSP":"58"},"geometry":{"type":"Point","coordinates":[145.01088800000002,-37.841387]}},{"type":"Feature","properties":{"STOP_ID":"18710","STOP_NAME":"43-Deepdene Shopping Centre/Whitehorse Rd (Balwyn)","LATITUDE":-37.810925,"LONGITUDE":145.064877,"TICKETZONE":"1","ROUTEUSSP":"109"},"geometry":{"type":"Point","coordinates":[145.06487700000002,-37.810925]}},{"type":"Feature","properties":{"STOP_ID":"18711","STOP_NAME":"119-Park St/Lygon St (Carlton North)","LATITUDE":-37.779417,"LONGITUDE":144.970471,"TICKETZONE":"1","ROUTEUSSP":"6,1"},"geometry":{"type":"Point","coordinates":[144.9704710000001,-37.77941699999997]}},{"type":"Feature","properties":{"STOP_ID":"18712","STOP_NAME":"120-Brunswick Rd/Lygon St (Brunswick)","LATITUDE":-37.778455,"LONGITUDE":144.970634,"TICKETZONE":"1","ROUTEUSSP":"6,1"},"geometry":{"type":"Point","coordinates":[144.97063400000002,-37.77845499999995]}},{"type":"Feature","properties":{"STOP_ID":"18713","STOP_NAME":"121-Weston St/Lygon St (Brunswick East)","LATITUDE":-37.775667,"LONGITUDE":144.970971,"TICKETZONE":"1","ROUTEUSSP":"6,1"},"geometry":{"type":"Point","coordinates":[144.97097100000008,-37.775667]}},{"type":"Feature","properties":{"STOP_ID":"18714","STOP_NAME":"122-Glenlyon Rd/Lygon St (Brunswick East)","LATITUDE":-37.772737,"LONGITUDE":144.971415,"TICKETZONE":"1","ROUTEUSSP":"6,1"},"geometry":{"type":"Point","coordinates":[144.97141499999998,-37.77273699999995]}},{"type":"Feature","properties":{"STOP_ID":"18715","STOP_NAME":"123-Albert St/Lygon St (Brunswick East)","LATITUDE":-37.769781,"LONGITUDE":144.97195,"TICKETZONE":"1","ROUTEUSSP":"6,1"},"geometry":{"type":"Point","coordinates":[144.97195,-37.769780999999966]}},{"type":"Feature","properties":{"STOP_ID":"18716","STOP_NAME":"124-Victoria St/Lygon St (Brunswick East)","LATITUDE":-37.7682,"LONGITUDE":144.972231,"TICKETZONE":"1","ROUTEUSSP":"6,1"},"geometry":{"type":"Point","coordinates":[144.97223100000008,-37.76819999999998]}},{"type":"Feature","properties":{"STOP_ID":"18717","STOP_NAME":"125-Blyth St/Lygon St (Brunswick East)","LATITUDE":-37.766664,"LONGITUDE":144.972512,"TICKETZONE":"1","ROUTEUSSP":"6,1"},"geometry":{"type":"Point","coordinates":[144.97251200000005,-37.76666399999999]}},{"type":"Feature","properties":{"STOP_ID":"18718","STOP_NAME":"126-Stewart St/Lygon St (Brunswick East)","LATITUDE":-37.764427,"LONGITUDE":144.972902,"TICKETZONE":"1","ROUTEUSSP":"6,1"},"geometry":{"type":"Point","coordinates":[144.9729020000001,-37.764426999999955]}},{"type":"Feature","properties":{"STOP_ID":"18719","STOP_NAME":"127-Albion St/Lygon St (Brunswick East)","LATITUDE":-37.762369,"LONGITUDE":144.973265,"TICKETZONE":"1","ROUTEUSSP":"6,1"},"geometry":{"type":"Point","coordinates":[144.97326500000008,-37.76236899999998]}},{"type":"Feature","properties":{"STOP_ID":"18720","STOP_NAME":"128-Mitchell St/Holmes St (Brunswick East)","LATITUDE":-37.759387,"LONGITUDE":144.974334,"TICKETZONE":"1","ROUTEUSSP":"6,1"},"geometry":{"type":"Point","coordinates":[144.974334,-37.759387000000004]}},{"type":"Feature","properties":{"STOP_ID":"18721","STOP_NAME":"129-Moreland Rd/Holmes St (Brunswick)","LATITUDE":-37.75688,"LONGITUDE":144.974754,"TICKETZONE":"1","ROUTEUSSP":"6,1"},"geometry":{"type":"Point","coordinates":[144.97475400000008,-37.75687999999997]}},{"type":"Feature","properties":{"STOP_ID":"18722","STOP_NAME":"130-Barrow St/Moreland Rd (Coburg)","LATITUDE":-37.756206,"LONGITUDE":144.970153,"TICKETZONE":"1","ROUTEUSSP":"6"},"geometry":{"type":"Point","coordinates":[144.97015299999998,-37.75620599999996]}},{"type":"Feature","properties":{"STOP_ID":"18723","STOP_NAME":"131-De Carle St/Moreland Rd (Coburg)","LATITUDE":-37.75581,"LONGITUDE":144.96652,"TICKETZONE":"1","ROUTEUSSP":"6"},"geometry":{"type":"Point","coordinates":[144.96652000000006,-37.75581]}},{"type":"Feature","properties":{"STOP_ID":"18724","STOP_NAME":"132-Sydney Rd/Moreland Rd (Coburg)","LATITUDE":-37.755564,"LONGITUDE":144.964279,"TICKETZONE":"1","ROUTEUSSP":"6"},"geometry":{"type":"Point","coordinates":[144.96427900000003,-37.75556399999999]}},{"type":"Feature","properties":{"STOP_ID":"18725","STOP_NAME":"133-Moreland Station/Moreland Rd (Coburg)","LATITUDE":-37.75526,"LONGITUDE":144.962381,"TICKETZONE":"1","ROUTEUSSP":"6"},"geometry":{"type":"Point","coordinates":[144.96238100000005,-37.755259999999964]}},{"type":"Feature","properties":{"STOP_ID":"18726","STOP_NAME":"130-The Avenue/Nicholson St (Coburg)","LATITUDE":-37.753566,"LONGITUDE":144.975945,"TICKETZONE":"1","ROUTEUSSP":"1"},"geometry":{"type":"Point","coordinates":[144.97594500000002,-37.75356599999998]}},{"type":"Feature","properties":{"STOP_ID":"18727","STOP_NAME":"131-Rennie St/Nicholson St (Coburg)","LATITUDE":-37.75134,"LONGITUDE":144.976505,"TICKETZONE":"1","ROUTEUSSP":"1"},"geometry":{"type":"Point","coordinates":[144.9765050000001,-37.75133999999997]}},{"type":"Feature","properties":{"STOP_ID":"18728","STOP_NAME":"132-Crozier St/Nicholson St (Coburg)","LATITUDE":-37.749418,"LONGITUDE":144.976841,"TICKETZONE":"1","ROUTEUSSP":"1"},"geometry":{"type":"Point","coordinates":[144.97684100000004,-37.74941799999999]}},{"type":"Feature","properties":{"STOP_ID":"18729","STOP_NAME":"133-Harding St/Nicholson St (Coburg)","LATITUDE":-37.746371,"LONGITUDE":144.97731,"TICKETZONE":"1","ROUTEUSSP":"1"},"geometry":{"type":"Point","coordinates":[144.97731,-37.746370999999954]}},{"type":"Feature","properties":{"STOP_ID":"18730","STOP_NAME":"134-Merribell Ave/Nicholson St (Coburg)","LATITUDE":-37.744359,"LONGITUDE":144.977728,"TICKETZONE":"1","ROUTEUSSP":"1"},"geometry":{"type":"Point","coordinates":[144.97772800000007,-37.744358999999974]}},{"type":"Feature","properties":{"STOP_ID":"18732","STOP_NAME":"44-Deepdene Park/Whitehorse Rd (Balwyn)","LATITUDE":-37.811375,"LONGITUDE":145.068671,"TICKETZONE":"1","ROUTEUSSP":"109"},"geometry":{"type":"Point","coordinates":[145.068671,-37.811375]}},{"type":"Feature","properties":{"STOP_ID":"18733","STOP_NAME":"45-Hardwicke St/Whitehorse Rd (Balwyn)","LATITUDE":-37.81175,"LONGITUDE":145.071785,"TICKETZONE":"1","ROUTEUSSP":"109"},"geometry":{"type":"Point","coordinates":[145.07178499999998,-37.81174999999996]}},{"type":"Feature","properties":{"STOP_ID":"18734","STOP_NAME":"46-Balwyn Cinema/Whitehorse Rd (Balwyn)","LATITUDE":-37.812242,"LONGITUDE":145.07593,"TICKETZONE":"1","ROUTEUSSP":"109"},"geometry":{"type":"Point","coordinates":[145.07593000000008,-37.81224199999997]}},{"type":"Feature","properties":{"STOP_ID":"18735","STOP_NAME":"47-Balwyn Rd/Whitehorse Rd (Balwyn)","LATITUDE":-37.812919,"LONGITUDE":145.081524,"TICKETZONE":"1,2","ROUTEUSSP":"109"},"geometry":{"type":"Point","coordinates":[145.08152400000006,-37.812918999999965]}},{"type":"Feature","properties":{"STOP_ID":"20573","STOP_NAME":"76-Johnson St/Glenferrie Rd (Hawthorn)","LATITUDE":-37.816825,"LONGITUDE":145.036369,"TICKETZONE":"1","ROUTEUSSP":"16"},"geometry":{"type":"Point","coordinates":[145.03636900000004,-37.816824999999994]}},{"type":"Feature","properties":{"STOP_ID":"17915","STOP_NAME":"10-Parliament Railway Station/Macarthur St (East Melbourne)","LATITUDE":-37.812358,"LONGITUDE":144.974318,"TICKETZONE":"1","ROUTEUSSP":"11,12,109"},"geometry":{"type":"Point","coordinates":[144.97431800000004,-37.81235799999996]}},{"type":"Feature","properties":{"STOP_ID":"17917","STOP_NAME":"46-Rosamond Rd/Raleigh Rd (Maribyrnong)","LATITUDE":-37.768887,"LONGITUDE":144.886729,"TICKETZONE":"1","ROUTEUSSP":"82,57"},"geometry":{"type":"Point","coordinates":[144.88672900000006,-37.76888699999995]}},{"type":"Feature","properties":{"STOP_ID":"17918","STOP_NAME":"48-Raleigh Rd/Wests Rd (Maribyrnong)","LATITUDE":-37.769637,"LONGITUDE":144.882813,"TICKETZONE":"1","ROUTEUSSP":"82"},"geometry":{"type":"Point","coordinates":[144.88281300000006,-37.76963699999999]}},{"type":"Feature","properties":{"STOP_ID":"17919","STOP_NAME":"49-Highpoint Shopping Centre/Wests Rd (Maribyrnong)","LATITUDE":-37.773248,"LONGITUDE":144.882154,"TICKETZONE":"1","ROUTEUSSP":"82"},"geometry":{"type":"Point","coordinates":[144.882154,-37.77324799999997]}},{"type":"Feature","properties":{"STOP_ID":"17920","STOP_NAME":"50-Wests Rd/Williamson Rd (Maribyrnong)","LATITUDE":-37.775212,"LONGITUDE":144.882143,"TICKETZONE":"1","ROUTEUSSP":"82"},"geometry":{"type":"Point","coordinates":[144.88214300000004,-37.775211999999954]}},{"type":"Feature","properties":{"STOP_ID":"17921","STOP_NAME":"51-Williamson Rd/Rosamond Rd (Maidstone)","LATITUDE":-37.775842,"LONGITUDE":144.885611,"TICKETZONE":"1","ROUTEUSSP":"82"},"geometry":{"type":"Point","coordinates":[144.88561100000004,-37.775841999999955]}},{"type":"Feature","properties":{"STOP_ID":"17922","STOP_NAME":"52-Rosamond Rd/River St (Maribyrnong)","LATITUDE":-37.7793,"LONGITUDE":144.885444,"TICKETZONE":"1","ROUTEUSSP":"82"},"geometry":{"type":"Point","coordinates":[144.885444,-37.77929999999998]}},{"type":"Feature","properties":{"STOP_ID":"17923","STOP_NAME":"53-Maribyrnong College/River St (Maribyrnong)","LATITUDE":-37.779638,"LONGITUDE":144.88825,"TICKETZONE":"1","ROUTEUSSP":"82"},"geometry":{"type":"Point","coordinates":[144.88825000000008,-37.77963799999998]}},{"type":"Feature","properties":{"STOP_ID":"17924","STOP_NAME":"54-Gordon St/River St (Maribyrnong)","LATITUDE":-37.780017,"LONGITUDE":144.891248,"TICKETZONE":"1","ROUTEUSSP":"82"},"geometry":{"type":"Point","coordinates":[144.89124800000002,-37.78001699999999]}},{"type":"Feature","properties":{"STOP_ID":"17925","STOP_NAME":"55-Lyric St/Gordon St (Maribyrnong)","LATITUDE":-37.782241,"LONGITUDE":144.891151,"TICKETZONE":"1","ROUTEUSSP":"82"},"geometry":{"type":"Point","coordinates":[144.89115100000004,-37.782241]}},{"type":"Feature","properties":{"STOP_ID":"17926","STOP_NAME":"56-Edgewater Square/Gordon St (Maribyrnong)","LATITUDE":-37.784944,"LONGITUDE":144.89062,"TICKETZONE":"1","ROUTEUSSP":"82"},"geometry":{"type":"Point","coordinates":[144.89062,-37.784943999999996]}},{"type":"Feature","properties":{"STOP_ID":"17927","STOP_NAME":"57-Titch St/Gordon St (Footscray)","LATITUDE":-37.788644,"LONGITUDE":144.889924,"TICKETZONE":"1","ROUTEUSSP":"82"},"geometry":{"type":"Point","coordinates":[144.88992400000006,-37.78864399999998]}},{"type":"Feature","properties":{"STOP_ID":"17928","STOP_NAME":"58-Ballarat Rd/Gordon St (Footscray)","LATITUDE":-37.79128,"LONGITUDE":144.889656,"TICKETZONE":"1","ROUTEUSSP":"82"},"geometry":{"type":"Point","coordinates":[144.88965600000006,-37.79127999999997]}},{"type":"Feature","properties":{"STOP_ID":"17929","STOP_NAME":"59-Droop St/Ballarat Rd (Footscray)","LATITUDE":-37.792584,"LONGITUDE":144.893571,"TICKETZONE":"1","ROUTEUSSP":"82"},"geometry":{"type":"Point","coordinates":[144.89357100000007,-37.79258399999998]}},{"type":"Feature","properties":{"STOP_ID":"17930","STOP_NAME":"60-Tiernan St/Droop St (Footscray)","LATITUDE":-37.79489,"LONGITUDE":144.895516,"TICKETZONE":"1","ROUTEUSSP":"82"},"geometry":{"type":"Point","coordinates":[144.89551600000004,-37.79488999999995]}},{"type":"Feature","properties":{"STOP_ID":"17931","STOP_NAME":"61-Geelong Rd/Droop St (Footscray)","LATITUDE":-37.796793,"LONGITUDE":144.897131,"TICKETZONE":"1","ROUTEUSSP":"82"},"geometry":{"type":"Point","coordinates":[144.89713100000006,-37.79679299999998]}},{"type":"Feature","properties":{"STOP_ID":"17932","STOP_NAME":"62-Nicholson St/Hopkins St (Footscray)","LATITUDE":-37.799841,"LONGITUDE":144.899736,"TICKETZONE":"1","ROUTEUSSP":"82"},"geometry":{"type":"Point","coordinates":[144.89973600000008,-37.79984099999996]}},{"type":"Feature","properties":{"STOP_ID":"17933","STOP_NAME":"63-Footscray Market/Leeds St (Footscray)","LATITUDE":-37.800081,"LONGITUDE":144.901058,"TICKETZONE":"1","ROUTEUSSP":"82"},"geometry":{"type":"Point","coordinates":[144.90105800000003,-37.80008099999998]}},{"type":"Feature","properties":{"STOP_ID":"17934","STOP_NAME":"64-Footscray Station/Leeds St (Footscray)","LATITUDE":-37.801286,"LONGITUDE":144.900945,"TICKETZONE":"1","ROUTEUSSP":"82"},"geometry":{"type":"Point","coordinates":[144.90094499999998,-37.801286000000005]}},{"type":"Feature","properties":{"STOP_ID":"17935","STOP_NAME":"40-Epsom Rd/Maribyrnong Rd (Moonee Ponds)","LATITUDE":-37.770432,"LONGITUDE":144.905121,"TICKETZONE":"1","ROUTEUSSP":"82,57"},"geometry":{"type":"Point","coordinates":[144.905121,-37.77043199999997]}},{"type":"Feature","properties":{"STOP_ID":"17936","STOP_NAME":"39-Bowen St/Maribyrnong Rd (Moonee Ponds)","LATITUDE":-37.770862,"LONGITUDE":144.909003,"TICKETZONE":"1","ROUTEUSSP":"82,57"},"geometry":{"type":"Point","coordinates":[144.90900299999998,-37.770861999999966]}},{"type":"Feature","properties":{"STOP_ID":"17937","STOP_NAME":"38-Hotham St/Maribyrnong Rd (Moonee Ponds)","LATITUDE":-37.771236,"LONGITUDE":144.91233,"TICKETZONE":"1","ROUTEUSSP":"82,57"},"geometry":{"type":"Point","coordinates":[144.91233,-37.77123599999999]}},{"type":"Feature","properties":{"STOP_ID":"17938","STOP_NAME":"37-Union Rd/Maribyrnong Rd (Moonee Ponds)","LATITUDE":-37.771674,"LONGITUDE":144.916189,"TICKETZONE":"1","ROUTEUSSP":"82,57"},"geometry":{"type":"Point","coordinates":[144.91618900000003,-37.77167399999996]}},{"type":"Feature","properties":{"STOP_ID":"17939","STOP_NAME":"36-86 Maribyrnong Rd (Moonee Ponds)","LATITUDE":-37.771891,"LONGITUDE":144.918295,"TICKETZONE":"1","ROUTEUSSP":"82"},"geometry":{"type":"Point","coordinates":[144.91829500000006,-37.77189099999998]}},{"type":"Feature","properties":{"STOP_ID":"17940","STOP_NAME":"35-Moore St/Maribyrnong Rd (Moonee Ponds)","LATITUDE":-37.772212,"LONGITUDE":144.921135,"TICKETZONE":"1","ROUTEUSSP":"82"},"geometry":{"type":"Point","coordinates":[144.92113500000005,-37.77221199999997]}},{"type":"Feature","properties":{"STOP_ID":"17941","STOP_NAME":"34-Ascot Vale Rd/Maribyrnong Rd (Moonee Ponds)","LATITUDE":-37.772474,"LONGITUDE":144.923705,"TICKETZONE":"1","ROUTEUSSP":"82"},"geometry":{"type":"Point","coordinates":[144.92370500000004,-37.77247399999999]}},{"type":"Feature","properties":{"STOP_ID":"17942","STOP_NAME":"33-Chaucer St/Ascot Vale Rd (Moonee Ponds)","LATITUDE":-37.770051,"LONGITUDE":144.924284,"TICKETZONE":"1","ROUTEUSSP":"82"},"geometry":{"type":"Point","coordinates":[144.92428400000006,-37.77005099999997]}},{"type":"Feature","properties":{"STOP_ID":"17944","STOP_NAME":"49-Central Park Ave/Cordite Ave (Maribyrnong)","LATITUDE":-37.768853,"LONGITUDE":144.877829,"TICKETZONE":"1","ROUTEUSSP":"57"},"geometry":{"type":"Point","coordinates":[144.87782900000002,-37.76885299999998]}},{"type":"Feature","properties":{"STOP_ID":"17945","STOP_NAME":"36-St Leonards Rd/Union Rd (Ascot Vale)","LATITUDE":-37.773571,"LONGITUDE":144.915943,"TICKETZONE":"1","ROUTEUSSP":"57"},"geometry":{"type":"Point","coordinates":[144.91594300000008,-37.773571000000004]}},{"type":"Feature","properties":{"STOP_ID":"17946","STOP_NAME":"35-Bloomfield Rd/Union Rd (Ascot Vale)","LATITUDE":-37.775889,"LONGITUDE":144.91556,"TICKETZONE":"1","ROUTEUSSP":"57"},"geometry":{"type":"Point","coordinates":[144.91556000000003,-37.77588899999995]}},{"type":"Feature","properties":{"STOP_ID":"17947","STOP_NAME":"34-Burrowes St/Union Rd (Ascot Vale)","LATITUDE":-37.778532,"LONGITUDE":144.915179,"TICKETZONE":"1","ROUTEUSSP":"57"},"geometry":{"type":"Point","coordinates":[144.91517900000008,-37.778531999999984]}},{"type":"Feature","properties":{"STOP_ID":"17948","STOP_NAME":"33-Melbourne Showgrounds/Union Rd (Ascot Vale)","LATITUDE":-37.780454,"LONGITUDE":144.914807,"TICKETZONE":"1","ROUTEUSSP":"57"},"geometry":{"type":"Point","coordinates":[144.914807,-37.78045399999996]}},{"type":"Feature","properties":{"STOP_ID":"17949","STOP_NAME":"32-Sandown Rd/Epsom Rd (Ascot Vale)","LATITUDE":-37.782587,"LONGITUDE":144.916712,"TICKETZONE":"1","ROUTEUSSP":"57"},"geometry":{"type":"Point","coordinates":[144.91671200000008,-37.78258699999998]}},{"type":"Feature","properties":{"STOP_ID":"17950","STOP_NAME":"31-Racing Victoria/161 Epsom Rd (Ascot Vale)","LATITUDE":-37.784018,"LONGITUDE":144.918125,"TICKETZONE":"1","ROUTEUSSP":"57"},"geometry":{"type":"Point","coordinates":[144.91812500000003,-37.784018]}},{"type":"Feature","properties":{"STOP_ID":"17951","STOP_NAME":"30-Flemington Dr/Epsom Rd (Ascot Vale)","LATITUDE":-37.78588,"LONGITUDE":144.919935,"TICKETZONE":"1","ROUTEUSSP":"57"},"geometry":{"type":"Point","coordinates":[144.919935,-37.78587999999996]}},{"type":"Feature","properties":{"STOP_ID":"17952","STOP_NAME":"29-Flemington Racecourse/Racecourse Rd (Flemington)","LATITUDE":-37.787394,"LONGITUDE":144.922004,"TICKETZONE":"1","ROUTEUSSP":"57"},"geometry":{"type":"Point","coordinates":[144.92200400000002,-37.78739399999995]}},{"type":"Feature","properties":{"STOP_ID":"17953","STOP_NAME":"28-Smithfield Rd/Racecourse Rd (Flemington)","LATITUDE":-37.787626,"LONGITUDE":144.92495,"TICKETZONE":"1","ROUTEUSSP":"57"},"geometry":{"type":"Point","coordinates":[144.92495000000008,-37.78762599999999]}},{"type":"Feature","properties":{"STOP_ID":"17954","STOP_NAME":"26-Newmarket Plaza/Racecourse Rd (Flemington)","LATITUDE":-37.787971,"LONGITUDE":144.928154,"TICKETZONE":"1","ROUTEUSSP":"57"},"geometry":{"type":"Point","coordinates":[144.92815400000006,-37.78797099999997]}},{"type":"Feature","properties":{"STOP_ID":"17955","STOP_NAME":"25-Wellington St/Racecourse Rd (Flemington)","LATITUDE":-37.788269,"LONGITUDE":144.931246,"TICKETZONE":"1","ROUTEUSSP":"57"},"geometry":{"type":"Point","coordinates":[144.931246,-37.78826899999996]}},{"type":"Feature","properties":{"STOP_ID":"17956","STOP_NAME":"24-Victoria St/Racecourse Rd (Flemington)","LATITUDE":-37.788443,"LONGITUDE":144.93349,"TICKETZONE":"1","ROUTEUSSP":"57"},"geometry":{"type":"Point","coordinates":[144.93349,-37.78844299999997]}},{"type":"Feature","properties":{"STOP_ID":"17957","STOP_NAME":"23-Stubbs St/Racecourse Rd (Flemington)","LATITUDE":-37.788768,"LONGITUDE":144.936581,"TICKETZONE":"1","ROUTEUSSP":"57"},"geometry":{"type":"Point","coordinates":[144.93658100000005,-37.788768000000005]}},{"type":"Feature","properties":{"STOP_ID":"17958","STOP_NAME":"22-Boundary Rd/Racecourse Rd (North Melbourne)","LATITUDE":-37.789131,"LONGITUDE":144.939852,"TICKETZONE":"1","ROUTEUSSP":"57"},"geometry":{"type":"Point","coordinates":[144.9398520000001,-37.789131]}},{"type":"Feature","properties":{"STOP_ID":"17959","STOP_NAME":"20-Melrose St/Flemington Rd (North Melbourne)","LATITUDE":-37.790421,"LONGITUDE":144.943507,"TICKETZONE":"1","ROUTEUSSP":"59,57"},"geometry":{"type":"Point","coordinates":[144.94350700000007,-37.79042099999998]}},{"type":"Feature","properties":{"STOP_ID":"17961","STOP_NAME":"19-Abbotsford St Interchange/Abbotsford St (North Melbourne)","LATITUDE":-37.794106,"LONGITUDE":144.947096,"TICKETZONE":"1","ROUTEUSSP":"57"},"geometry":{"type":"Point","coordinates":[144.947096,-37.794106]}},{"type":"Feature","properties":{"STOP_ID":"18006","STOP_NAME":"11-Albert St/Gisborne St (East Melbourne)","LATITUDE":-37.809695,"LONGITUDE":144.975606,"TICKETZONE":"1","ROUTEUSSP":"11,12,109"},"geometry":{"type":"Point","coordinates":[144.97560600000008,-37.80969499999998]}},{"type":"Feature","properties":{"STOP_ID":"18009","STOP_NAME":"10-Nicholson St/Victoria Pde (East Melbourne)","LATITUDE":-37.808019,"LONGITUDE":144.973562,"TICKETZONE":"1","ROUTEUSSP":"30"},"geometry":{"type":"Point","coordinates":[144.97356200000002,-37.808019]}},{"type":"Feature","properties":{"STOP_ID":"18010","STOP_NAME":"9-La Trobe St/Victoria St (Melbourne City)","LATITUDE":-37.807605,"LONGITUDE":144.970938,"TICKETZONE":"1","ROUTEUSSP":"35,30"},"geometry":{"type":"Point","coordinates":[144.97093800000005,-37.80760499999997]}},{"type":"Feature","properties":{"STOP_ID":"18011","STOP_NAME":"8-Exhibition St/La Trobe St (Melbourne City)","LATITUDE":-37.808103,"LONGITUDE":144.969027,"TICKETZONE":"1","ROUTEUSSP":"35,30"},"geometry":{"type":"Point","coordinates":[144.96902699999998,-37.80810299999996]}},{"type":"Feature","properties":{"STOP_ID":"18030","STOP_NAME":"6-Swanston St/La Trobe St (Melbourne City)","LATITUDE":-37.80955,"LONGITUDE":144.964081,"TICKETZONE":"1","ROUTEUSSP":"35,30"},